[{"injured": 5, "_point": {"lat": 35.1495343, "lng": -90.0489801, "label": "Memphis, TN"}, "shooter": "Unknown", "dead": 0, "location": "Memphis, TN", "date": "1/1/2015", "article": ["http://www.wmcactionnews5.com/story/27743361/5-injured-in-new-years-day-party-bus-shooting"]}, {"injured": 4, "_point": {"lat": 32.0835407, "lng": -81.09983419999999, "label": "Savannah, GA"}, "shooter": "Unknown", "dead": 1, "location": "Savannah, GA", "date": "1/2/2015", "article": ["http://savannahnow.com/crime/2015-01-02/police-1-dead-4-injured-overnight-savannah-shooting"]}, {"injured": 1, "_point": {"lat": 32.7766642, "lng": -96.79698789999999, "label": "Dallas, TX"}, "shooter": "Unknown", "dead": 3, "location": "Dallas, TX", "date": "1/4/2015", "article": ["http://dfw.cbslocal.com/2015/01/04/police-3-dead-1-in-surgery-after-dallas-shooting/"]}, {"injured": 4, "_point": {"lat": 37.2709704, "lng": -79.9414266, "label": "Roanoke, VA"}, "shooter": "William Christopher Cabbler", "dead": 2, "location": "Roanoke, VA", "date": "1/4/2015", "article": ["http://www.wdbj7.com/news/local/developing-story-roanoke-police-investigating-early-am-shooting/30521654"]}, {"injured": 3, "_point": {"lat": 25.7616798, "lng": -80.1917902, "label": "Miami, FL"}, "shooter": "Unknown", "dead": 1, "location": "Miami, FL", "date": "1/6/2015", "article": ["http://www.nbcmiami.com/news/local/2-Shot-2-Grazed-by-Bullets-in-Miami-287737751.html"]}, {"injured": 3, "_point": {"lat": 35.0456297, "lng": -85.3096801, "label": "Chattanooga, TN"}, "shooter": "Cortez Sims", "dead": 1, "location": "Chattanooga, TN", "date": "1/7/2015", "article": ["http://www.wrcbtv.com/story/27778835/one-person-is-dead-and-three-others-are-injured-in-overnight-shooting"]}, {"injured": 3, "_point": {"lat": 42.3600825, "lng": -71.0588801, "label": "Boston, MA"}, "shooter": "Unknown", "dead": 1, "location": "Boston, MA", "date": "1/8/2015", "article": ["http://boston.cbslocal.com/2015/01/09/1-dead-3-wounded-in-shooting-on-roxbury-street/"]}, {"injured": 0, "_point": {"lat": 37.7749295, "lng": -122.4194155, "label": "San Francisco, CA"}, "shooter": "Unknown", "dead": 4, "location": "San Francisco, CA", "date": "1/9/2015", "article": ["http://abc7news.com/news/sfpd-confirm-4-dead-following-shooting-in-hayes-valley/469681/"]}, {"injured": 1, "_point": {"lat": 46.73238749999999, "lng": -117.0001651, "label": "Moscow, ID"}, "shooter": "John Lee", "dead": 3, "location": "Moscow, ID", "date": "1/10/2015", "article": ["http://www.kxly.com/news/north-idaho-news/moscow-police-investigating-shooting/30634900"]}, {"injured": 5, "_point": {"lat": 37.3382082, "lng": -121.8863286, "label": "San Jose, CA"}, "shooter": "Unknown", "dead": 0, "location": "San Jose, CA", "date": "1/11/2015", "article": ["http://abc7news.com/news/5-hurt-in-shooting-during-chris-brown-party-in-sj/470625/"]}, {"injured": 5, "_point": {"lat": 34.9704419, "lng": -78.9453056, "label": "Hope Mills, NC"}, "shooter": "Unknown", "dead": 2, "location": "Hope Mills, NC", "date": "1/11/2015", "article": ["http://www.wral.com/two-dead-five-injured-in-shooting-at-hope-mills-party/14346149/"]}, {"injured": 3, "_point": {"lat": 28.0394654, "lng": -81.9498042, "label": "Lakeland, FL"}, "shooter": "Unknown", "dead": 1, "location": "Lakeland, FL", "date": "1/11/2015", "article": ["http://www.abcactionnews.com/news/region-polk/lakeland/deputies-one-person-killed-three-others-shot-during-a-home-invasion-robbery-in-lakeland"]}, {"injured": 5, "_point": {"lat": 32.430237, "lng": -85.7077266, "label": "Tuskegee, AL"}, "shooter": "Rishod Shermaine Fields", "dead": 0, "location": "Tuskegee, AL", "date": "1/11/2015", "article": ["http://www.al.com/news/montgomery/index.ssf/2015/01/arrest_made_in_shooting_that_i_1.html"]}, {"injured": 2, "_point": {"lat": 37.68717609999999, "lng": -97.33005299999999, "label": "Wichita, KS"}, "shooter": "Unknown", "dead": 2, "location": "Wichita, KS", "date": "1/12/2015", "article": ["http://www.kansas.com/news/local/crime/article6058869.html"]}, {"injured": 5, "_point": {"lat": 36.8354258, "lng": -76.2982742, "label": "Portsmouth, VA"}, "shooter": "Unknown", "dead": 0, "location": "Portsmouth, VA", "date": "1/13/2015", "article": ["http://wtkr.com/2015/01/13/early-morning-shooting-at-portsmouth-lounge-leaves-5-people-injured/"]}, {"injured": 3, "_point": {"lat": 42.2711311, "lng": -89.0939952, "label": "Rockford, IL"}, "shooter": "Unknown", "dead": 2, "location": "Rockford, IL", "date": "1/14/2015", "article": ["http://www.mystateline.com/fulltext-news/d/story/update-victims-identified-in-deadly-rockford-shoot/42689/GXoLZ3hSL0a6X8s5IeDbCA"]}, {"injured": 5, "_point": {"lat": 29.4241219, "lng": -98.49362819999999, "label": "San Antonio, TX"}, "shooter": "Unknown", "dead": 2, "location": "San Antonio, TX", "date": "1/19/2015", "article": ["http://www.ksat.com/content/pns/ksat/news/2015/01/20/chaotic-brawl--shooting-leaves-two-dead--more-wounded.html"]}, {"injured": 3, "_point": {"lat": 36.5297706, "lng": -87.3594528, "label": "Clarksville, TN"}, "shooter": "Timothy David Shoffner", "dead": 1, "location": "Clarksville, TN", "date": "1/20/2015", "article": ["http://www.wsmv.com/story/27904193/clarksville-police-id-suspect-in-shooting"]}, {"injured": 6, "_point": {"lat": 42.3600825, "lng": -71.0588801, "label": "Boston, MA"}, "shooter": "Unknown", "dead": 0, "location": "Boston, MA", "date": "1/23/2015", "article": ["http://www.wcvb.com/news/multiple-people-shot-in-boston/30895680"]}, {"injured": 5, "_point": {"lat": 41.2523634, "lng": -95.99798829999999, "label": "Omaha, NE"}, "shooter": "Unknown", "dead": 3, "location": "Omaha, NE", "date": "1/24/2015", "article": ["http://www.usatoday.com/story/news/nation/2015/01/24/omaha-party-shooting/22297565/"]}, {"injured": 1, "_point": {"lat": 40.7282239, "lng": -73.7948516, "label": "Queens, NY"}, "shooter": "Jonathon Walker", "dead": 4, "location": "Queens, NY", "date": "1/24/2015", "article": ["http://www.nbcnewyork.com/news/local/2-Kids-and-1-Adult-Dead-in-Queens-Shooting-3rd-Child-Being-Treated-Brookville-148th-Avenue-289669211.html"]}, {"injured": 4, "_point": {"lat": 37.9577016, "lng": -121.2907796, "label": "Stockton, CA"}, "shooter": "Unknown", "dead": 1, "location": "Stockton, CA", "date": "1/26/2015", "article": ["http://www.kcra.com/news/local-news/news-stockton/teenager-dies-3-others-hurt-in-stockton-shooting/30937222"]}, {"injured": 3, "_point": {"lat": 33.7956441, "lng": -84.2278796, "label": "DeKalb, GA"}, "shooter": "Unknown", "dead": 1, "location": "DeKalb, GA", "date": "1/28/2015", "article": ["http://www.ajc.com/news/news/one-dead-three-wounded-in-dekalb-shooting/njy7R/"]}, {"injured": 0, "_point": {"lat": 33.0698575, "lng": -85.02334599999999, "label": "Troup County, GA"}, "shooter": "Thomas Jessee Lee", "dead": 5, "location": "Troup County, GA", "date": "1/29/2015", "article": ["http://www.wsbtv.com/news/news/local/five-bodies-found-inside-lagrange-home/nj2rK/"]}, {"injured": 6, "_point": {"lat": 43.0481221, "lng": -76.14742439999999, "label": "Syracuse, NY"}, "shooter": "Michael Morris", "dead": 0, "location": "Syracuse, NY", "date": "2/1/2015", "article": ["http://www.syracuse.com/news/index.ssf/2015/02/6th_victim_in_mcavans_pub_shooting_took_herself_to_hospital_sunday_police_say.html"]}, {"injured": 4, "_point": {"lat": 40.7830603, "lng": -73.9712488, "label": "Manhattan, NY"}, "shooter": "Unknown", "dead": 1, "location": "Manhattan, NY", "date": "2/1/2015", "article": ["http://7online.com/news/1-dead-4-wounded-after-shooting-in-hamilton-heights/500497/"]}, {"injured": 0, "_point": {"lat": 36.2806939, "lng": -80.3592197, "label": "King, NC"}, "shooter": "Unknown", "dead": 4, "location": "King, NC", "date": "2/4/2015", "article": ["http://www.journalnow.com/news/crime/four-dead-in-stokes-county-shooting/article_eed92570-aca5-11e4-91e7-0f002c38c9b8.html"]}, {"injured": 3, "_point": {"lat": 41.4323067, "lng": -81.5102655, "label": "Warrensville Heights, OH"}, "shooter": "Unknown", "dead": 3, "location": "Warrensville Heights, OH", "date": "2/5/2015", "article": ["http://www.wkyc.com/story/news/local/cuyahoga-county/2015/02/05/warrensville-heights-barbershop/22956675/"]}, {"injured": 3, "_point": {"lat": 36.1539816, "lng": -95.99277500000001, "label": "Tulsa, OK"}, "shooter": "Unknown", "dead": 1, "location": "Tulsa, OK", "date": "2/6/2015", "article": ["http://www.newson6.com/story/28049041/tulsa-police-investigating-reports-of-triple-shooting"]}, {"injured": 2, "_point": {"lat": 33.7514966, "lng": -84.7477136, "label": "Douglasville, GA"}, "shooter": "Cedric G. Prather", "dead": 5, "location": "Douglasville, GA", "date": "2/7/2015", "article": ["http://www.csmonitor.com/USA/Latest-News-Wires/2015/0208/Children-among-five-dead-in-Georgia-shooting-video"]}, {"injured": 6, "_point": {"lat": 35.7812386, "lng": -89.1324866, "label": "Crockett County, TN"}, "shooter": "Unknown", "dead": 0, "location": "Crockett County, TN", "date": "2/8/2015", "article": ["http://www.wmcactionnews5.com/story/28054306/six-hit-in-early-morning-crockett-county-shooting"]}, {"injured": 1, "_point": {"lat": 28.2441768, "lng": -82.7192671, "label": "New Port Richey, FL"}, "shooter": "Christopher Lee Duncan and Dora Delgado", "dead": 3, "location": "New Port Richey, FL", "date": "2/9/2015", "article": ["http://www.tampabay.com/news/publicsafety/crime/pasco-sheriff-identifies-third-victim-in-moon-lake-shooting/2217118"]}, {"injured": 5, "_point": {"lat": 33.7700504, "lng": -118.1937395, "label": "Long Beach, CA"}, "shooter": "Unknown", "dead": 0, "location": "Long Beach, CA", "date": "2/15/2015", "article": ["http://www.nbclosangeles.com/news/local/Long-Beach-Shooting-Sunday-292042941.html"]}, {"injured": 3, "_point": {"lat": 34.7464809, "lng": -92.28959479999999, "label": "Little Rock, AR"}, "shooter": "Unknown", "dead": 1, "location": "Little Rock, AR", "date": "2/17/2015", "article": ["http://www.arkansasonline.com/news/2015/feb/18/one-killed-three-injured-in-shooting-at/"]}, {"injured": 2, "_point": {"lat": 34.6478893, "lng": -83.54965659999999, "label": "Habersham County, GA"}, "shooter": "Anthony Giaquinta", "dead": 3, "location": "Habersham County, GA", "date": "2/22/2015", "article": ["http://www.wsbtv.com/news/news/local/2-deputies-shot-habersham-county/nkGwC/"]}, {"injured": 4, "_point": {"lat": 32.7764749, "lng": -79.93105120000001, "label": "Charleston, SC"}, "shooter": "Unknown", "dead": 0, "location": "Charleston, SC", "date": "2/22/2015", "article": ["http://www.postandcourier.com/article/20150223/PC16/150229733/1005&source=RSS"]}, {"injured": 1, "_point": {"lat": 31.1171194, "lng": -97.72779589999999, "label": "Killeen, TX"}, "shooter": "Atase Giffa", "dead": 4, "location": "Killeen, TX", "date": "2/22/2015", "article": ["http://www.wfaa.com/story/news/nation/2015/02/23/four-dead-killeen-texas-shooting/23873731/"]}, {"injured": 2, "_point": {"lat": 29.7604267, "lng": -95.3698028, "label": "Houston, TX"}, "shooter": "Unknown", "dead": 3, "location": "Houston, TX", "date": "2/25/2015", "article": ["http://www.khou.com/story/news/2015/02/26/3-dead-2-injured-in-south-houston-shooting/24040425/"]}, {"injured": 1, "_point": {"lat": 37.2033832, "lng": -91.8765399, "label": "Tyrone, MO"}, "shooter": "Joseph Jesse Aldridge", "dead": 8, "location": "Tyrone, MO", "date": "2/27/2015", "article": ["http://www.nbcnews.com/news/crime-courts/nine-found-dead-including-gunman-after-missouri-shooting-spree-police-n314071"]}, {"injured": 3, "_point": {"lat": 39.2903848, "lng": -76.6121893, "label": "Baltimore, MD"}, "shooter": "Unknown", "dead": 1, "location": "Baltimore, MD", "date": "2/28/2015", "article": ["http://baltimore.cbslocal.com/2015/02/28/multiple-injured-in-baltimore-shooting/"]}, {"injured": 0, "_point": {"lat": 35.8968236, "lng": -77.5358049, "label": "Tarboro, NC"}, "shooter": "Ian Sherrod", "dead": 4, "location": "Tarboro, NC", "date": "2/28/2015", "article": ["http://www.wncn.com/story/28228144/at-least-2-shot-at-tarboro-barber-shop"]}, {"injured": 1, "_point": {"lat": 38.9517053, "lng": -92.3340724, "label": "Columbia, MO"}, "shooter": "Unknown", "dead": 3, "location": "Columbia, MO", "date": "2/28/2015", "article": ["http://www.wmur.com/national/three-dead-one-wounded-in-missouri-shootings/31551946"]}, {"injured": 4, "_point": {"lat": 28.4558386, "lng": -81.44590470000001, "label": "Tangelo Park, FL"}, "shooter": "Unknown", "dead": 0, "location": "Tangelo Park, FL", "date": "3/1/2015", "article": ["http://www.wftv.com/news/news/local/4-injured-tangelo-park-shooting/nkL22/"]}, {"injured": 5, "_point": {"lat": 42.331427, "lng": -83.0457538, "label": "Detroit, MI"}, "shooter": "Unknown", "dead": 1, "location": "Detroit, MI", "date": "3/1/2015", "article": ["http://www.toledoblade.com/Nation/2015/03/01/Man-44-killed-5-wounded-when-gunfire-erupts-during-celebration-at-Detroit-social-hall.html"]}, {"injured": 4, "_point": {"lat": 33.7455731, "lng": -117.8678338, "label": "Santa Ana, CA"}, "shooter": "Unknown", "dead": 1, "location": "Santa Ana, CA", "date": "3/2/2015", "article": ["http://www.ocregister.com/articles/santa-652761-altercation-shot.html"]}, {"injured": 1, "_point": {"lat": 36.1699412, "lng": -115.1398296, "label": "Las Vegas, NV"}, "shooter": "Unknown", "dead": 3, "location": "Las Vegas, NV", "date": "3/3/2015", "article": ["http://www.jrn.com/ktnv/news/2-dead-2-hospitalized-after-shooting-near-Fort-Apache-and-Sahara-294993961.html"]}, {"injured": 5, "_point": {"lat": 34.1083449, "lng": -117.2897652, "label": "San Bernadino, CA"}, "shooter": "Unknown", "dead": 2, "location": "San Bernadino, CA", "date": "3/4/2015", "article": ["http://www.nbclosangeles.com/news/local/People-Shot-Nightclub-San-Bernardino-294974301.html"]}, {"injured": 3, "_point": {"lat": 41.8781136, "lng": -87.6297982, "label": "Chicago, IL"}, "shooter": "Unknown", "dead": 1, "location": "Chicago, IL", "date": "3/9/2015", "article": ["http://abc7chicago.com/news/roseland-shooting-leaves-1-dead-3-injured-/551473/"]}, {"injured": 5, "_point": {"lat": 32.4609764, "lng": -84.9877094, "label": "Columbus, GA"}, "shooter": "Unknown", "dead": 0, "location": "Columbus, GA", "date": "3/10/2015", "article": ["http://www.ledger-enquirer.com/2015/03/10/3607030_five-wounded-during-tuesday-morning.html?rh=1"]}, {"injured": 4, "_point": {"lat": 41.7605849, "lng": -88.32007150000001, "label": "Aurora, IL"}, "shooter": "Unknown", "dead": 0, "location": "Aurora, IL", "date": "3/11/2015", "article": ["http://my.chicagotribune.com/#section/-1/article/p2p-83042213/"]}, {"injured": 3, "_point": {"lat": 31.5790588, "lng": -90.4406506, "label": "Brookhaven, MS"}, "shooter": "Jimmy Lyons", "dead": 2, "location": "Brookhaven, MS", "date": "3/13/2015", "article": ["http://www.wapt.com/news/central-mississippi/reports-5-shot-in-brookhaven/31775312"]}, {"injured": 5, "_point": {"lat": 33.7489954, "lng": -84.3879824, "label": "Atlanta, GA"}, "shooter": "Unknown", "dead": 0, "location": "Atlanta, GA", "date": "3/14/2015", "article": ["http://www.wsbtv.com/news/news/local/police-investigating-shooting-left-5-men-injured/nkXFD/"]}, {"injured": 4, "_point": {"lat": 35.39932700000001, "lng": -78.8158528, "label": "Lillington, NC"}, "shooter": "Eric Antonio Cannady and Tommy Ray Jackson Jr.", "dead": 0, "location": "Lillington, NC", "date": "3/15/2015", "article": ["http://www.wncn.com/story/28524422/4-injured-in-early-morning-shooting-in-lillington"]}, {"injured": 1, "_point": {"lat": 31.1318686, "lng": -85.31362179999999, "label": "Houston County, AL"}, "shooter": "Christopher Lance Joyner", "dead": 3, "location": "Houston County, AL", "date": "3/15/2015", "article": ["http://www.wsfa.com/story/28529911/3-dead-1-injured-in-houston-county-murder-suicide"]}, {"injured": 4, "_point": {"lat": 33.8958492, "lng": -118.2200712, "label": "Compton, CA"}, "shooter": "Unknown", "dead": 0, "location": "Compton, CA", "date": "3/16/2015", "article": ["http://losangeles.cbslocal.com/2015/03/15/2-girls-2-men-shot-at-birthday-party-in-compton/"]}, {"injured": 4, "_point": {"lat": 37.9577016, "lng": -121.2907796, "label": "Stockton, CA"}, "shooter": "Unknown", "dead": 3, "location": "Stockton, CA", "date": "3/17/2015", "article": ["http://www.kcra.com/news/police-multiple-people-reportedly-injured-in-stockton-shooting/31860188"]}, {"injured": 5, "_point": {"lat": 33.4151843, "lng": -111.8314724, "label": "Mesa, AZ"}, "shooter": "Unknown", "dead": 1, "location": "Mesa, AZ", "date": "3/18/2015", "article": ["http://www.usatoday.com/story/news/nation/2015/03/18/mesa-arizona-shootings/24965575/"]}, {"injured": 3, "_point": {"lat": 40.735657, "lng": -74.1723667, "label": "Newark, NJ"}, "shooter": "Unknown", "dead": 1, "location": "Newark, NJ", "date": "3/18/2015", "article": ["http://www.northjersey.com/news/police-1-killed-3-wounded-in-afternoon-shooting-in-newark-1.1291344"]}, {"injured": 2, "_point": {"lat": 36.0672173, "lng": -109.1880047, "label": "Navajo Nation, AZ"}, "shooter": "Justin Fowler", "dead": 2, "location": "Navajo Nation, AZ", "date": "3/19/2015", "article": ["http://www.kob.com/article/stories/s3740954.shtml"]}, {"injured": 4, "_point": {"lat": 33.4956744, "lng": -88.4272627, "label": "Columbus, MS"}, "shooter": "Unknown", "dead": 0, "location": "Columbus, MS", "date": "3/20/2015", "article": ["http://www.cdispatch.com/news/article.asp?aid=40862"]}, {"injured": 4, "_point": {"lat": 35.4675602, "lng": -97.5164276, "label": "Oklahoma City, OK"}, "shooter": "Unknown", "dead": 0, "location": "Oklahoma City, OK", "date": "3/20/2015", "article": ["http://newsok.com/police-investigate-quadruple-shooting-in-northeast-oklahoma-city/article/5403359"]}, {"injured": 4, "_point": {"lat": 41.525031, "lng": -88.0817251, "label": "Joliet, IL"}, "shooter": "Unknown", "dead": 0, "location": "Joliet, IL", "date": "3/20/2015", "article": ["http://chicago.suntimes.com/crime/7/71/463526/four-shot-joliet"]}, {"injured": 5, "_point": {"lat": 32.5920798, "lng": -96.7561082, "label": "Lancaster, TX"}, "shooter": "Unknown", "dead": 1, "location": "Lancaster, TX", "date": "3/20/2015", "article": ["http://crimeblog.dallasnews.com/2015/03/five-wounded-one-killed-in-lancaster-shooting.html/"]}, {"injured": 4, "_point": {"lat": 27.9650212, "lng": -82.4350941, "label": "Ybor City, FL"}, "shooter": "Unknown", "dead": 0, "location": "Ybor City, FL", "date": "3/21/2015", "article": ["http://tbo.com/news/crime/four-shot-outside-carmines-restaurant-in-ybor-city-20150321/"]}, {"injured": 5, "_point": {"lat": 26.6253497, "lng": -81.6248026, "label": "Lehigh Acres, FL"}, "shooter": "Unknown", "dead": 0, "location": "Lehigh Acres, FL", "date": "3/21/2015", "article": ["http://www.winknews.com/2015/03/22/five-injured-at-lehigh-acres-party/"]}, {"injured": 6, "_point": {"lat": 35.0853336, "lng": -106.6055534, "label": "Albuquerque, NM"}, "shooter": "Unknown", "dead": 1, "location": "Albuquerque, NM", "date": "3/22/2015", "article": ["http://www.abqjournal.com/558868/abqnewsseeker/albuquerque-police-1-dead-others-hurt-in-park-shooting.html"]}, {"injured": 4, "_point": {"lat": 36.5297706, "lng": -87.3594528, "label": "Clarksville, TN"}, "shooter": "Unknown", "dead": 1, "location": "Clarksville, TN", "date": "3/23/2015", "article": ["http://www.theleafchronicle.com/story/news/crime/2015/03/24/dead-injured-drive-shooting/70366434/"]}, {"injured": 0, "_point": {"lat": 39.768403, "lng": -86.158068, "label": "Indianapolis, IN"}, "shooter": "Unknown", "dead": 4, "location": "Indianapolis, IN", "date": "3/24/2015", "article": ["http://www.usatoday.com/story/news/nation/2015/03/24/4-dead-indianapolis-home/70374450/"]}, {"injured": 4, "_point": {"lat": 35.2219971, "lng": -101.8312969, "label": "Amarillo, TX"}, "shooter": "Unknown", "dead": 0, "location": "Amarillo, TX", "date": "3/26/2015", "article": ["http://amarillo.com/news/latest-news/2015-03-26/police-investigate-near-hamlet-elementary"]}, {"injured": 7, "_point": {"lat": 30.1765914, "lng": -85.8054879, "label": "Panama City Beach, FL"}, "shooter": "David Jamichael Daniels", "dead": 0, "location": "Panama City Beach, FL", "date": "3/28/2015", "article": ["http://www.oregonlive.com/today/index.ssf/2015/03/spring_break_shooting_in_flori.html"]}, {"injured": 4, "_point": {"lat": 37.9577016, "lng": -121.2907796, "label": "Stockton, CA"}, "shooter": "Unknown", "dead": 0, "location": "Stockton, CA", "date": "3/29/2015", "article": ["http://www.news10.net/story/news/local/stockton/2015/03/29/four-people-shooting-deja-vu-night-club/70644684/"]}, {"injured": 0, "_point": {"lat": 36.1539816, "lng": -95.99277500000001, "label": "Tulsa, OK"}, "shooter": "Sudheer Khamitkar", "dead": 4, "location": "Tulsa, OK", "date": "3/30/2015", "article": ["http://www.tulsaworld.com/news/crimewatch/four-people-found-dead-in-east-tulsa-home-police-say/article_9c246e78-57b2-5d84-8257-5a5d23e37a14.html"]}, {"injured": 5, "_point": {"lat": 39.2903848, "lng": -76.6121893, "label": "Baltimore, MD"}, "shooter": "Unknown", "dead": 0, "location": "Baltimore, MD", "date": "4/2/2015", "article": ["http://www.wbaltv.com/news/multiple-people-shot-in-west-baltimore/32156116"]}, {"injured": 4, "_point": {"lat": 29.2108147, "lng": -81.0228331, "label": "Daytona Beach, FL"}, "shooter": "Vincent Tyrone Smith", "dead": 0, "location": "Daytona Beach, FL", "date": "4/3/2015", "article": ["http://www.wesh.com/news/4-people-shot-near-bethunecookman-university-deputies-say/32169944"]}, {"injured": 4, "_point": {"lat": 38.2526647, "lng": -85.7584557, "label": "Louisville, KY"}, "shooter": "Unknown", "dead": 1, "location": "Louisville, KY", "date": "4/5/2015", "article": ["http://www.wave3.com/story/28724814/5-people-shot-in-early-hours-of-easter-sunday"]}, {"injured": 5, "_point": {"lat": 39.768403, "lng": -86.158068, "label": "Indianapolis, IN"}, "shooter": "Unknown", "dead": 0, "location": "Indianapolis, IN", "date": "4/5/2015", "article": ["http://www.bigstory.ap.org/article/c5d24cbeed8d40afb2322c66e6b9153c/police-2-women-3-children-shot-indianapolis-townhome"]}, {"injured": 3, "_point": {"lat": 34.257038, "lng": -85.1646726, "label": "North Rome, GA"}, "shooter": "Unknown", "dead": 1, "location": "North Rome, GA", "date": "4/7/2015", "article": ["http://wrgarome.com/common/page.php?feed=1&id=45571&is_corp=1"]}, {"injured": 0, "_point": {"lat": 33.4483771, "lng": -112.0740373, "label": "Phoenix, AZ"}, "shooter": "Unknown", "dead": 5, "location": "Phoenix, AZ", "date": "4/16/2015", "article": ["http://www.washingtonpost.com/news/morning-mix/wp/2015/04/17/five-dead-in-family-dispute-after-hours-long-standoff-at-phoenix-home/"]}, {"injured": 4, "_point": {"lat": 34.0522342, "lng": -118.2436849, "label": "Los Angeles, CA"}, "shooter": "Unknown", "dead": 1, "location": "Los Angeles, CA", "date": "4/16/2015", "article": ["http://www.dailynews.com/general-news/20150416/1-killed-4-wounded-in-shootings-in-palms-male-suspect-sought"]}, {"injured": 3, "_point": {"lat": 40.9167654, "lng": -74.17181099999999, "label": "Paterson, NJ"}, "shooter": "Unknown", "dead": 1, "location": "Paterson, NJ", "date": "4/18/2015", "article": ["http://www.nbcnewyork.com/news/local/Boy-15-Dies-in-NJ-Shooting-Paterson-300593881.html"]}, {"injured": 4, "_point": {"lat": 35.2270869, "lng": -80.8431267, "label": "Charlotte, NC"}, "shooter": "Unknown", "dead": 0, "location": "Charlotte, NC", "date": "4/18/2015", "article": ["http://www.wsoctv.com/news/news/local/medic-1-person-taken-hospital-after-west-charlotte/nkxff/"]}, {"injured": 3, "_point": {"lat": 34.6182199, "lng": -79.0086424, "label": "Lumberton, NC"}, "shooter": "Unknown", "dead": 1, "location": "Lumberton, NC", "date": "4/18/2015", "article": ["http://www.wave3.com/story/28837482/police-shooting-in-lumberton-leaves-one-dead-6-year-old-child-among-3-injured"]}, {"injured": 5, "_point": {"lat": 41.2411897, "lng": -77.00107860000001, "label": "Williamsport, PA"}, "shooter": "Unknown", "dead": 0, "location": "Williamsport, PA", "date": "4/18/2015", "article": ["http://www.pennlive.com/midstate/index.ssf/2015/04/five_wounded_in_shooting_outsi.html#incart_river"]}, {"injured": 5, "_point": {"lat": 32.3668052, "lng": -86.2999689, "label": "Montgomery, AL"}, "shooter": "Unknown", "dead": 0, "location": "Montgomery, AL", "date": "4/18/2015", "article": ["http://www.wsfa.com/story/28841135/5-injured-in-west-montgomery-shooting"]}, {"injured": 4, "_point": {"lat": 37.5407246, "lng": -77.4360481, "label": "Richmond, VA"}, "shooter": "Unknown", "dead": 0, "location": "Richmond, VA", "date": "4/19/2015", "article": ["http://www.richmond.com/news/local/city-of-richmond/article_d6647e6f-dd0f-5edf-b43b-4c981e8eb9aa.html"]}, {"injured": 3, "_point": {"lat": 31.1171194, "lng": -97.72779589999999, "label": "Killeen, TX"}, "shooter": "Unknown", "dead": 2, "location": "Killeen, TX", "date": "4/21/2015", "article": ["http://www.kwtx.com/home/headlines/Police-Investigate-Early-Morning-Shooting-300759331.html"]}, {"injured": 4, "_point": {"lat": 40.2170534, "lng": -74.7429384, "label": "Trenton, NJ"}, "shooter": "Unknown", "dead": 0, "location": "Trenton, NJ", "date": "4/25/2015", "article": ["http://www.nj.com/mercer/index.ssf/2015/04/4_shot_in_trenton_early_saturday_night_police_say.html"]}, {"injured": 6, "_point": {"lat": 43.1497793, "lng": -77.69924069999999, "label": "Gates, NY"}, "shooter": "David Alligood", "dead": 1, "location": "Gates, NY", "date": "4/25/2015", "article": ["http://www.democratandchronicle.com/story/news/2015/04/25/killed-hurt-gates-pub-shooting/26355003/"]}, {"injured": 4, "_point": {"lat": 40.6781784, "lng": -73.9441579, "label": "Brooklyn, NY"}, "shooter": "Unknown", "dead": 2, "location": "Brooklyn, NY", "date": "4/27/2015", "article": ["http://www.nytimes.com/2015/04/28/nyregion/5-shot-2-fatally-outside-funeral-at-brooklyn-church.html?smid=re-share&_r=0"]}, {"injured": 2, "_point": {"lat": 32.9478236, "lng": -112.7168305, "label": "Gila Bend, AZ"}, "shooter": "Unknown", "dead": 2, "location": "Gila Bend, AZ", "date": "4/27/2015", "article": ["http://azdailysun.com/news/state-and-regional/mcso-people-dead-wounded-in-shooting-east-of-gila-bend/article_858544a6-fbd7-592c-8c5a-141c79e7836a.html"]}, {"injured": 3, "_point": {"lat": 43.0389025, "lng": -87.9064736, "label": "Milwaukee, WI"}, "shooter": "Unknown", "dead": 2, "location": "Milwaukee, WI", "date": "5/1/2015", "article": ["http://fox6now.com/2015/05/01/developing-two-killed-in-early-morning-shooting-near-37th-and-nash/"]}, {"injured": 1, "_point": {"lat": 44.2022084, "lng": -88.44649729999999, "label": "Menasha, WI"}, "shooter": "Unknown", "dead": 4, "location": "Menasha, WI", "date": "5/3/2015", "article": ["http://news.yahoo.com/four-killed-shooting-wisconsin-foot-bridge-including-suspect-041118959.html"]}, {"injured": 4, "_point": {"lat": 41.6763545, "lng": -86.25198979999999, "label": "South Bend, IN"}, "shooter": "Christopher Lee Accettura", "dead": 0, "location": "South Bend, IN", "date": "5/3/2015", "article": ["http://www.wsbt.com/news/local/update-arrest-made-in-south-bend-shooting-that-injured-4/32785308"]}, {"injured": 6, "_point": {"lat": 29.7604267, "lng": -95.3698028, "label": "Houston, TX"}, "shooter": "Unknown", "dead": 0, "location": "Houston, TX", "date": "5/3/2015", "article": ["http://www.kwtx.com/home/headlines/Six-Injured-In-Shooting-Outside-Of-Texas-Nightclub-302352761.html"]}, {"injured": 6, "_point": {"lat": 39.7589478, "lng": -84.1916069, "label": "Dayton, OH"}, "shooter": "Unknown", "dead": 1, "location": "Dayton, OH", "date": "5/3/2015", "article": ["http://www.wlwt.com/news/police-8-shot-at-dayton-business/32778884"]}, {"injured": 4, "_point": {"lat": 40.8370495, "lng": -73.86542949999999, "label": "Bronx, NY"}, "shooter": "Unknown", "dead": 0, "location": "Bronx, NY", "date": "5/4/2015", "article": ["http://nypost.com/2015/05/04/daily-blotter-512/"]}, {"injured": 3, "_point": {"lat": 42.88644679999999, "lng": -78.8783689, "label": "Buffalo, NY"}, "shooter": "Unknown", "dead": 1, "location": "Buffalo, NY", "date": "5/4/2015", "article": ["http://wivb.com/2015/05/04/police-respond-to-triple-shooting-in-buffalo/"]}, {"injured": 4, "_point": {"lat": 39.1031182, "lng": -84.5120196, "label": "Cincinnati, OH"}, "shooter": "Unknown", "dead": 0, "location": "Cincinnati, OH", "date": "5/7/2015", "article": ["http://www.wlwt.com/news/cpd-investigating-quadruple-shooting-on-baltimore-avenue/32867572"]}, {"injured": 4, "_point": {"lat": 40.72815749999999, "lng": -74.0776417, "label": "Jersey City, NJ"}, "shooter": "Unknown", "dead": 0, "location": "Jersey City, NJ", "date": "5/10/2015", "article": ["http://www.nj.com/hudson/index.ssf/2015/05/4_women_shot_on_jersey_city_street_5_charged_with.html#incart_river"]}, {"injured": 4, "_point": {"lat": 41.49932, "lng": -81.6943605, "label": "Cleveland, OH"}, "shooter": "Unknown", "dead": 1, "location": "Cleveland, OH", "date": "5/10/2015", "article": ["http://www.huffingtonpost.com/2015/05/11/cleveland-shooting_n_7254086.html"]}, {"injured": 3, "_point": {"lat": 40.735657, "lng": -74.1723667, "label": "Newark, NJ"}, "shooter": "Unknown", "dead": 1, "location": "Newark, NJ", "date": "5/10/2015", "article": ["http://www.nbcnewyork.com/news/local/NJ-Newark-Knights-Biker-Club-Shooting-Dead-303236741.html"]}, {"injured": 4, "_point": {"lat": 38.8851122, "lng": -76.9158068, "label": "Capitol Heights, MD"}, "shooter": "Unknown", "dead": 1, "location": "Capitol Heights, MD", "date": "5/12/2015", "article": ["http://wtop.com/prince-georges-county/2015/05/one-killed-4-injured-in-capitol-heights-shooting/"]}, {"injured": 0, "_point": {"lat": 32.2217429, "lng": -110.926479, "label": "Tucson, AZ"}, "shooter": "Christopher Carrillo", "dead": 5, "location": "Tucson, AZ", "date": "5/12/2015", "article": ["http://www.huffingtonpost.com/2015/05/13/tucson-shooting_n_7272000.html"]}, {"injured": 0, "_point": {"lat": 61.2180556, "lng": -149.9002778, "label": "Anchorage, AK"}, "shooter": "Unknown", "dead": 4, "location": "Anchorage, AK", "date": "5/13/2015", "article": ["http://www.adn.com/article/20150514/domestic-violence-blame-4-deaths-south-anchorage-police-say"]}, {"injured": 5, "_point": {"lat": 43.0389025, "lng": -87.9064736, "label": "Milwaukee, WI"}, "shooter": "Unknown", "dead": 0, "location": "Milwaukee, WI", "date": "5/16/2015", "article": ["http://fox6now.com/2015/05/16/breaking-police-investigate-triple-shooting-on-milwaukees-north-side/"]}, {"injured": 5, "_point": {"lat": 39.2903848, "lng": -76.6121893, "label": "Baltimore, MD"}, "shooter": "Unknown", "dead": 0, "location": "Baltimore, MD", "date": "5/16/2015", "article": ["http://www.wbaltv.com/news/2-men-2-women-shot-in-baltimore-police-say/33062884"]}, {"injured": 4, "_point": {"lat": 43.16103, "lng": -77.6109219, "label": "Rochester, NY"}, "shooter": "Unknown", "dead": 0, "location": "Rochester, NY", "date": "5/16/2015", "article": ["http://www.democratandchronicle.com/story/news/2015/05/16/four-men-shot-near-lewis-street/27434111/"]}, {"injured": 18, "_point": {"lat": 31.549333, "lng": -97.1466695, "label": "Waco, TX"}, "shooter": "Unknown", "dead": 9, "location": "Waco, TX", "date": "5/17/2015", "article": ["http://www.cnn.com/2015/05/17/us/texas-shooting/index.html"]}, {"injured": 4, "_point": {"lat": 25.7616798, "lng": -80.1917902, "label": "Miami, FL"}, "shooter": "Unknown", "dead": 1, "location": "Miami, FL", "date": "5/18/2015", "article": ["http://www.miamiherald.com/news/local/community/miami-dade/article21349797.html"]}, {"injured": 4, "_point": {"lat": 38.7406065, "lng": -90.3253922, "label": "Kinloch, MO"}, "shooter": "Unknown", "dead": 0, "location": "Kinloch, MO", "date": "5/18/2015", "article": ["http://www.kmov.com/story/29099207/two-hospitalized-after-late-night-shooting-in-kinloch"]}, {"injured": 3, "_point": {"lat": 38.8799697, "lng": -77.1067698, "label": "Arlington, VA"}, "shooter": "Unknown", "dead": 1, "location": "Arlington, VA", "date": "5/19/2015", "article": ["http://www.wjla.com/articles/2015/05/4-injured-in-shooting-in-arlington-114076.html"]}, {"injured": 4, "_point": {"lat": 39.2903848, "lng": -76.6121893, "label": "Baltimore, MD"}, "shooter": "Unknown", "dead": 1, "location": "Baltimore, MD", "date": "5/20/2015", "article": ["http://www.wbaltv.com/news/police-several-people-shot-in-east-baltimore/33129870"]}, {"injured": 2, "_point": {"lat": 36.7468422, "lng": -119.7725868, "label": "Fresno, CA"}, "shooter": "Unknown", "dead": 2, "location": "Fresno, CA", "date": "5/23/2015", "article": ["http://www.fresnobee.com/news/local/crime/article21934929.html"]}, {"injured": 4, "_point": {"lat": 38.6270025, "lng": -90.19940419999999, "label": "St. Louis, MO"}, "shooter": "Unknown", "dead": 0, "location": "St. Louis, MO", "date": "5/24/2015", "article": ["http://www.stltoday.com/news/local/crime-and-courts/police-critically-wounded-in-st-louis-shooting/article_08aeee05-13db-53a9-95c4-11d3820a0b80.html"]}, {"injured": 3, "_point": {"lat": 32.3668052, "lng": -86.2999689, "label": "Montgomery, AL"}, "shooter": "Unknown", "dead": 1, "location": "Montgomery, AL", "date": "5/24/2015", "article": ["http://www.wsfa.com/story/29146971/4-shot-1-dead-in-weekend-shooting-at-montgomerys-smiley-court"]}, {"injured": 7, "_point": {"lat": 43.0125274, "lng": -83.6874562, "label": "Flint, MI"}, "shooter": "Unknown", "dead": 0, "location": "Flint, MI", "date": "5/24/2015", "article": ["http://www.abc12.com/home/headlines/Multiple-people-shot-during-violent-holiday-weekend-304862191.html"]}, {"injured": 5, "_point": {"lat": 42.0834335, "lng": -71.0183787, "label": "Brockton, MA"}, "shooter": "Unknown", "dead": 0, "location": "Brockton, MA", "date": "5/24/2015", "article": ["http://www.wcvb.com/news/gunfire-erupts-at-brockton-bar-multiple-injuries-reported/33195690?absolute=true"]}, {"injured": 4, "_point": {"lat": 39.8403147, "lng": -88.9548001, "label": "Decatur, IL"}, "shooter": "Unknown", "dead": 1, "location": "Decatur, IL", "date": "5/25/2015", "article": ["http://herald-review.com/news/local/crime-and-courts/decatur-man-killed-four-wounded-in-shooting-at-club-maxey/article_2c850ef3-21f1-5830-80df-3d430638b068.html"]}, {"injured": 2, "_point": {"lat": 29.95106579999999, "lng": -90.0715323, "label": "New Orleans, LA"}, "shooter": "Unknown", "dead": 2, "location": "New Orleans, LA", "date": "5/26/2015", "article": ["http://www.nola.com/crime/index.ssf/2015/05/2_killed_2_injured_shooting.html"]}, {"injured": 4, "_point": {"lat": 41.2523634, "lng": -95.99798829999999, "label": "Omaha, NE"}, "shooter": "Unknown", "dead": 0, "location": "Omaha, NE", "date": "5/28/2015", "article": ["http://www.wowt.com/home/headlines/Four-Wounded-In-Shooting-305416711.html"]}, {"injured": 3, "_point": {"lat": 39.849557, "lng": -75.3557457, "label": "Chester, PA"}, "shooter": "Unknown", "dead": 1, "location": "Chester, PA", "date": "5/28/2015", "article": ["http://6abc.com/news/1-dead-3-wounded-in-chester-shooting/751826/"]}, {"injured": 5, "_point": {"lat": 41.8781136, "lng": -87.6297982, "label": "Chicago, IL"}, "shooter": "Unknown", "dead": 0, "location": "Chicago, Il", "date": "5/28/2015", "article": ["http://www.dnainfo.com/chicago/20150529/west-englewood/toddler-among-five-wounded-west-englewood-shooting-police-say"]}, {"injured": 3, "_point": {"lat": 25.7616798, "lng": -80.1917902, "label": "Miami, FL"}, "shooter": "Unknown", "dead": 1, "location": "Miami, FL", "date": "5/29/2015", "article": ["http://www.cbs8.com/story/29196990/4-shot-at-bar-swat-standoff-underway"]}, {"injured": 4, "_point": {"lat": 32.715738, "lng": -117.1610838, "label": "San Diego, CA"}, "shooter": "Unknown", "dead": 0, "location": "San Diego, CA", "date": "5/30/2015", "article": ["http://www.cbs8.com/story/29196990/4-shot-at-bar-swat-standoff-underway"]}, {"injured": 3, "_point": {"lat": 40.6988709, "lng": -73.4098154, "label": "North Amityville, NY"}, "shooter": "Unknown", "dead": 1, "location": "North Amityville, NY", "date": "5/30/2015", "article": ["http://newyork.cbslocal.com/2015/05/30/north-amityville-fight/"]}, {"injured": 1, "_point": {"lat": 41.49932, "lng": -81.6943605, "label": "Cleveland, OH"}, "shooter": "Unknown", "dead": 3, "location": "Cleveland, OH", "date": "5/31/2015", "article": ["http://www.wkyc.com/story/news/local/cleveland/2015/05/31/lavern-ave-shooting/28285919/"]}, {"injured": 3, "_point": {"lat": 33.6676103, "lng": -84.01769039999999, "label": "Conyers, GA"}, "shooter": "Unknown", "dead": 1, "location": "Conyers, GA", "date": "5/31/2015", "article": ["http://www.rockdalecitizen.com/news/2015/may/31/one-dead-three-wounded-in-shooting-rampage-in/"]}, {"injured": 3, "_point": {"lat": 38.9376113, "lng": -76.8388602, "label": "Springdale, MD"}, "shooter": "Unknown", "dead": 1, "location": "Springdale, MD", "date": "5/31/2015", "article": ["http://www.nbcwashington.com/news/local/One-Dead-Three-Injured-in-Shooting-at-Prince-George-Co-Park-305617831.html"]}, {"injured": 5, "_point": {"lat": 41.308274, "lng": -72.9278835, "label": "New Haven, CT"}, "shooter": "Unknown", "dead": 0, "location": "New Haven, CT", "date": "5/31/2015", "article": ["http://www.nbcconnecticut.com/news/local/Five-People-Shot-at-New-Haven-Party-305604931.html"]}, {"injured": 4, "_point": {"lat": 33.6598257, "lng": -85.8316318, "label": "Anniston, AL"}, "shooter": "Unknown", "dead": 0, "location": "Anniston, AL", "date": "6/2/2015", "article": ["http://www.al.com/news/anniston-gadsden/index.ssf/2015/06/4_people_shot_in_anniston_disp.html"]}, {"injured": 1, "_point": {"lat": 40.7539878, "lng": -73.360398, "label": "Wyandanch, NY"}, "shooter": "Unknown", "dead": 3, "location": "Wyandanch, NY", "date": "6/3/2015", "article": ["http://www.nbcnewyork.com/news/local/3-Dead-Wyandanch-Long-Island-Shooting-Police-306096381.html"]}, {"injured": 5, "_point": {"lat": 41.5236437, "lng": -90.5776367, "label": "Davenport, IA"}, "shooter": "Unknown", "dead": 0, "location": "Davenport, IA", "date": "6/5/2015", "article": ["http://qctimes.com/news/local/injured-in-shooting-in-davenport/article_a7b33225-4ada-50d6-805e-474aa473c9ff.html"]}, {"injured": 3, "_point": {"lat": 29.95106579999999, "lng": -90.0715323, "label": "New Orleans, LA"}, "shooter": "Unknown", "dead": 1, "location": "New Orleans, LA", "date": "6/5/2015", "article": ["http://www.wdsu.com/news/local-news/new-orleans/nopd-responding-to-multiple-people-shot-near-trem-seventh-ward/33423652?absolute=true"]}, {"injured": 5, "_point": {"lat": 41.8781136, "lng": -87.6297982, "label": "Chicago, IL"}, "shooter": "Unknown", "dead": 0, "location": "Chicago, IL", "date": "6/6/2015", "article": ["http://abc7chicago.com/news/5-injured-in-south-austin-shooting/769688/"]}, {"injured": 4, "_point": {"lat": 42.88644679999999, "lng": -78.8783689, "label": "Buffalo, NY"}, "shooter": "Unknown", "dead": 1, "location": "Buffalo, NY", "date": "6/6/2015", "article": ["http://wivb.com/2015/06/06/buffalo-police-investigate-triple-shooting/"]}, {"injured": 0, "_point": {"lat": 46.3990941, "lng": -112.7383721, "label": "Deer Lodge, MT"}, "shooter": "Michael Augustine Bournes", "dead": 5, "location": "Deer Lodge, MT", "date": "6/7/2015", "article": ["http://www.krtv.com/story/29277717/victims-identified-in-murders-suicide-near-deer-lodge"]}, {"injured": 3, "_point": {"lat": 38.6270025, "lng": -90.19940419999999, "label": "St. Louis, MO"}, "shooter": "Unknown", "dead": 1, "location": "St. Louis, MO", "date": "6/9/2015", "article": ["http://www.stltoday.com/news/local/crime-and-courts/woman-dead-wounded-by-gunfire-in-north-st-louis-park/article_e5e1e823-c09f-579f-8d3d-5d81401b269b.html"]}, {"injured": 3, "_point": {"lat": 39.1031182, "lng": -84.5120196, "label": "Cincinnati, OH"}, "shooter": "Unknown", "dead": 1, "location": "Cincinnati, OH", "date": "6/10/2015", "article": ["http://www.wlwt.com/news/police-investigating-after-3-people-shot-in-evanston/33507594"]}, {"injured": 3, "_point": {"lat": 34.0522342, "lng": -118.2436849, "label": "Los Angeles, CA"}, "shooter": "Unknown", "dead": 1, "location": "Los Angeles, CA", "date": "6/10/2015", "article": ["http://abc7.com/news/1-dead-3-wounded-in-south-la-shooting/776768/"]}, {"injured": 8, "_point": {"lat": 41.1865478, "lng": -73.19517669999999, "label": "Bridgeport, CT"}, "shooter": "Unknown", "dead": 1, "location": "Bridgeport, CT", "date": "6/11/2015", "article": ["http://news.yahoo.com/nine-wounded-one-dead-shooting-connecticut-apartment-media-094718511.html"]}, {"injured": 3, "_point": {"lat": 29.7604267, "lng": -95.3698028, "label": "Houston, TX"}, "shooter": "Unknown", "dead": 1, "location": "Houston, TX", "date": "6/11/2015", "article": ["http://abc13.com/news/one-dead-several-injured-after-third-ward-shooting/777883/"]}, {"injured": 4, "_point": {"lat": 25.7616798, "lng": -80.1917902, "label": "Miami, FL"}, "shooter": "Unknown", "dead": 0, "location": "Miami, FL", "date": "6/12/2015", "article": ["http://miami.cbslocal.com/2015/06/12/several-people-injured-in-shooting-outside-miami-club/"]}, {"injured": 4, "_point": {"lat": 35.4675602, "lng": -97.5164276, "label": "Oklahoma City, OK"}, "shooter": "Patrick Solis & Donald Walters", "dead": 0, "location": "Oklahoma City, OK", "date": "6/13/2015", "article": ["http://www.okcfox.com/story/29315672/four-injured-in-drive-by-shooting-2-arrested"]}, {"injured": 5, "_point": {"lat": 40.8370495, "lng": -73.86542949999999, "label": "Bronx, NY"}, "shooter": "Unknown", "dead": 0, "location": "Bronx, NY", "date": "6/13/2015", "article": ["http://www.nbcnewyork.com/news/local/Suspect-Sought-5-Shot-Bronx-NYPD-307540851.html"]}, {"injured": 4, "_point": {"lat": 36.1539816, "lng": -95.99277500000001, "label": "Tulsa, OK"}, "shooter": "Unknown", "dead": 0, "location": "Tulsa, OK", "date": "6/13/2015", "article": ["http://www.tulsaworld.com/news/crimewatch/four-hospitalized-in-overnight-shooting-at-north-tulsa-party/article_cdb02e7a-c686-58c0-971a-3638aff44fd7.html"]}, {"injured": 1, "_point": {"lat": 39.9611755, "lng": -82.99879419999999, "label": "Columbus, OH"}, "shooter": "Unknown", "dead": 4, "location": "Columbus, OH", "date": "6/13/2015", "article": ["http://abcnews.go.com/US/wireStory/police-dead-injured-shooting-ohio-home-31741950"]}, {"injured": 4, "_point": {"lat": 38.6270025, "lng": -90.19940419999999, "label": "St. Louis, MO"}, "shooter": "Unknown", "dead": 0, "location": "St. Louis, MO", "date": "6/13/2015", "article": ["http://www.kmov.com/story/29315038/saturday-night-party-ends-in-quadruple-shooting"]}, {"injured": 4, "_point": {"lat": 33.4502206, "lng": -84.4802606, "label": "Fayette County, GA"}, "shooter": "Unknown", "dead": 1, "location": "Fayette County, GA", "date": "6/13/2015", "article": ["http://www.11alive.com/story/news/crime/2015/06/14/fayette-fatal-pool-party-shooting/71207432/"]}, {"injured": 3, "_point": {"lat": 39.9259463, "lng": -75.1196199, "label": "Camden, NJ"}, "shooter": "Unknown", "dead": 1, "location": "Camden, NJ", "date": "6/14/2015", "article": ["http://www.courierpostonline.com/story/news/crime/2015/06/14/camden-shooting-leaves-injured/71207522/"]}, {"injured": 3, "_point": {"lat": 33.0801429, "lng": -83.2320991, "label": "Milledgeville, GA"}, "shooter": "Unknown", "dead": 1, "location": "Milledgeville, GA", "date": "6/14/2015", "article": ["http://www.macon.com/2015/06/14/3796263/one-killed-three-wounded-in-shooting.html"]}, {"injured": 4, "_point": {"lat": 40.6781784, "lng": -73.9441579, "label": "Brooklyn, NY"}, "shooter": "Unknown", "dead": 0, "location": "Brooklyn, NY", "date": "6/15/2015", "article": ["http://www.nydailynews.com/new-york/nyc-crime/4-shot-1-slashed-brooklyn-bar-sources-article-1.2258318"]}, {"injured": 4, "_point": {"lat": 25.9420377, "lng": -80.2456045, "label": "Miami Gardens, FL"}, "shooter": "Ivan Clark", "dead": 0, "location": "Miami Gardens, FL", "date": "6/16/2015", "article": ["http://www.nbcmiami.com/news/local/Four-People-Shot-in-Miami-Gardens-Police-307722511.html"]}, {"injured": 0, "_point": {"lat": 32.7764749, "lng": -79.93105120000001, "label": "Charleston, SC"}, "shooter": "Dylan Roof", "dead": 9, "location": "Charleston, SC", "date": "6/17/2015", "article": ["http://www.usatoday.com/story/news/nation/2015/06/17/charleston-south-carolina-shooting/28902017/"]}, {"injured": 4, "_point": {"lat": 42.00287609999999, "lng": -71.51478390000001, "label": "Woonsocket, RI"}, "shooter": "Zackary Alvarado", "dead": 0, "location": "Woonsocket, RI", "date": "6/19/2015", "article": ["http://m.providencejournal.com/article/20150619/NEWS/150619206/14110"]}, {"injured": 10, "_point": {"lat": 39.9525839, "lng": -75.1652215, "label": "Philadelphia, PA"}, "shooter": "Unknown", "dead": 0, "location": "Philadelphia, PA", "date": "6/20/2015", "article": ["http://www.cnn.com/2015/06/21/us/philadelphia-block-party-shooting/"]}, {"injured": 11, "_point": {"lat": 42.331427, "lng": -83.0457538, "label": "Detroit, MI"}, "shooter": "Unknown", "dead": 1, "location": "Detroit, MI", "date": "6/20/2015", "article": ["http://www.cnn.com/2015/06/21/us/detroit-birthday-party-shooting/"]}, {"injured": 5, "_point": {"lat": 38.0405837, "lng": -84.5037164, "label": "Lexington, KY"}, "shooter": "Unknown", "dead": 0, "location": "Lexington, KY", "date": "6/21/2015", "article": ["http://www.wkyt.com/home/headlines/Several-people-injured-in-shooting-at-Douglass-Park-in-Lexington.html"]}, {"injured": 0, "_point": {"lat": 41.1616108, "lng": -112.0263313, "label": "Roy, UT"}, "shooter": "Russell Smith", "dead": 4, "location": "Roy, UT", "date": "6/21/2015", "article": ["http://www.wkyt.com/home/headlines/Several-people-injured-in-shooting-at-Douglass-Park-in-Lexington.html"]}, {"injured": 7, "_point": {"lat": 39.9525839, "lng": -75.1652215, "label": "Philadelphia, PA"}, "shooter": "Unknown", "dead": 0, "location": "Philadelphia, PA", "date": "6/22/2015", "article": ["http://www.philly.com/philly/news/breaking/20150623_Seven_people_shot_in_Kensington.html"]}, {"injured": 3, "_point": {"lat": 41.8781136, "lng": -87.6297982, "label": "Chicago, IL"}, "shooter": "Unknown", "dead": 1, "location": "Chicago, IL", "date": "6/23/2015", "article": ["http://abc7chicago.com/news/1-dead-3-injured-in-bronzeville-shooting/802755/"]}, {"injured": 1, "_point": {"lat": 30.2735323, "lng": -91.8992837, "label": "Breaux Bridge, LA"}, "shooter": "Unknown", "dead": 3, "location": "Breaux Bridge, LA", "date": "6/23/2015", "article": ["http://www.katc.com/story/29392606/3-dead-1-injured-in-breaux-bridge-shooting"]}, {"injured": 4, "_point": {"lat": 40.7830603, "lng": -73.9712488, "label": "Manhattan, NY"}, "shooter": "Unknown", "dead": 0, "location": "Manhattan, NY", "date": "6/24/2015", "article": ["http://www.nytimes.com/2015/06/25/nyregion/four-wounded-in-upper-manhattan-shooting.html?_r=0"]}, {"injured": 4, "_point": {"lat": 29.95106579999999, "lng": -90.0715323, "label": "New Orleans, LA"}, "shooter": "Unknown", "dead": 0, "location": "New Orleans, LA", "date": "6/25/2015", "article": ["http://www.theneworleansadvocate.com/news/12756595-171/violent-night-in-new-orleans"]}, {"injured": 4, "_point": {"lat": 42.331427, "lng": -83.0457538, "label": "Detroit, MI"}, "shooter": "Unknown", "dead": 0, "location": "Detroit, MI", "date": "6/26/2015", "article": ["http://detroit.cbslocal.com/2015/06/27/4-men-shot-at-block-party-in-detroit/"]}, {"injured": 0, "_point": {"lat": 26.6276276, "lng": -80.1353896, "label": "Greenacres, FL"}, "shooter": "Unknown", "dead": 4, "location": "Greenacres, FL", "date": "6/27/2015", "article": ["http://www.palmbeachpost.com/news/news/crime-law/greenacres-police-probe-report-of-shooting/nmm6y/"]}, {"injured": 3, "_point": {"lat": 41.76371109999999, "lng": -72.6850932, "label": "Hartford, CT"}, "shooter": "Roosevelt Holmes", "dead": 1, "location": "Hartford, CT", "date": "6/27/2015", "article": ["http://connecticut.cbslocal.com/2015/06/28/shooting-at-hartford-basketball-tournament-leaves-4-hurt/"]}, {"injured": 3, "_point": {"lat": 41.900101, "lng": -71.0897674, "label": "Taunton, MA"}, "shooter": "Unknown", "dead": 1, "location": "Taunton, MA", "date": "6/27/2015", "article": ["http://www.turnto10.com/story/29424942/one-dead-three-others-injured-in-taunton-shooting"]}, {"injured": 6, "_point": {"lat": 38.9237244, "lng": -75.5777033, "label": "Harrington, DE"}, "shooter": "Unknown", "dead": 0, "location": "Harrington, DE", "date": "6/28/2015", "article": ["http://www.doverpost.com/article/20150628/NEWS/150629891"]}, {"injured": 5, "_point": {"lat": 42.331427, "lng": -83.0457538, "label": "Detroit, MI"}, "shooter": "Unknown", "dead": 0, "location": "Detroit, MI", "date": "6/28/2015", "article": ["http://www.freep.com/story/news/local/michigan/detroit/2015/06/29/block-party-shooting/29451529/"]}, {"injured": 6, "_point": {"lat": 38.6722727, "lng": -90.169832, "label": "Venice, IL"}, "shooter": "Unknown", "dead": 0, "location": "Venice, IL", "date": "6/28/2015", "article": ["http://thetelegraph.com/news/3391/autopsy-man-killed-in-granite-city-crash-had-been-shot"]}, {"injured": 4, "_point": {"lat": 25.9023168, "lng": -80.25032709999999, "label": "Opa-locka, FL"}, "shooter": "Unknown", "dead": 0, "location": "Opa-locka, FL", "date": "6/29/2015", "article": ["http://www.wsvn.com/story/29437311/4-shot-in-opa-locka-neighborhood"]}, {"injured": 4, "_point": {"lat": 40.735657, "lng": -74.1723667, "label": "Newark, NJ"}, "shooter": "Unknown", "dead": 1, "location": "Newark, NJ", "date": "7/1/2015", "article": ["http://www.nj.com/essex/index.ssf/2015/07/five_people_wounded_in_multiple_newark_shooting.html"]}, {"injured": 3, "_point": {"lat": 39.768403, "lng": -86.158068, "label": "Indianapolis, IN"}, "shooter": "Unknown", "dead": 1, "location": "Indianapolis, IN", "date": "7/1/2015", "article": ["http://www.indystar.com/story/news/crime/2015/07/03/one-killed-three-injured-drive-shooting/29659359/"]}, {"injured": 2, "_point": {"lat": 39.9525839, "lng": -75.1652215, "label": "Philadelphia, PA"}, "shooter": "Unknown", "dead": 2, "location": "Philadelphia, PA", "date": "7/3/2015", "article": ["http://www.myfoxphilly.com/story/29468719/2-dead-2-wounded-in-nicetown-shooting"]}, {"injured": 3, "_point": {"lat": 38.9071923, "lng": -77.0368707, "label": "Washington, D.C."}, "shooter": "Unknown", "dead": 1, "location": "Washington, D.C.", "date": "7/4/2015", "article": ["http://www.wusa9.com/story/news/local/dc/2015/07/05/4-shot-1-killed-in-se-dc-shooting/29731213/"]}, {"injured": 4, "_point": {"lat": 42.4500845, "lng": -73.2453824, "label": "Pittsfield, MA"}, "shooter": "Unknown", "dead": 1, "location": "Pittsfield, MA", "date": "7/4/2015", "article": ["http://www.masslive.com/news/index.ssf/2015/07/pittsfield_shooting_leaves_1_d.html"]}, {"injured": 4, "_point": {"lat": 29.4241219, "lng": -98.49362819999999, "label": "San Antonio, TX"}, "shooter": "Unknown", "dead": 0, "location": "San Antonio, TX", "date": "7/4/2015", "article": ["http://www.mysanantonio.com/news/local/article/Police-Fight-over-women-led-to-North-Side-6366733.php"]}, {"injured": 4, "_point": {"lat": 43.0481221, "lng": -76.14742439999999, "label": "Syracuse, NY"}, "shooter": "Unknown", "dead": 0, "location": "Syracuse, NY", "date": "7/4/2015", "article": ["http://www.syracuse.com/crime/index.ssf/2015/07/4_people_shot_as_suspect_opens_fire_on_syracuse_crowd_watching_july_4th_firework.html#incart_story_package"]}, {"injured": 9, "_point": {"lat": 41.079273, "lng": -85.1393513, "label": "Fort Wayne, IN"}, "shooter": "Unknown", "dead": 0, "location": "Fort Wayne, IN", "date": "7/5/2015", "article": ["http://wane.com/2015/07/05/nine-people-hurt-in-early-morning-shooting/"]}, {"injured": 8, "_point": {"lat": 32.5251516, "lng": -93.7501789, "label": "Shreveport, LA"}, "shooter": "Unknown", "dead": 0, "location": "Shreveport, LA", "date": "7/5/2015", "article": ["http://www.ksla.com/story/29477516/8-injured-in-overnight-shooting-in-w-shreveport"]}, {"injured": 0, "_point": {"lat": 34.9248667, "lng": -81.02507840000001, "label": "Rock Hill, SC"}, "shooter": "Unknown", "dead": 4, "location": "Rock Hill, SC", "date": "7/5/2015", "article": ["http://www.charlotteobserver.com/news/local/crime/article26552740.html"]}, {"injured": 3, "_point": {"lat": 40.767323, "lng": -74.2048677, "label": "East Orange, NJ"}, "shooter": "Unknown", "dead": 1, "location": "East Orange, NJ", "date": "7/5/2015", "article": ["http://newyork.cbslocal.com/2015/07/06/east-orange-shooting/"]}, {"injured": 1, "_point": {"lat": 39.2903848, "lng": -76.6121893, "label": "Baltimore, MD"}, "shooter": "Unknown", "dead": 3, "location": "Baltimore, MD", "date": "7/7/2015", "article": ["http://www.wbal.com/article/116967/40/4-shot-3-dead-just-blocks-from-umb-campus"]}, {"injured": 4, "_point": {"lat": 40.72815749999999, "lng": -74.0776417, "label": "Jersey City, NJ"}, "shooter": "Unknown", "dead": 0, "location": "Jersey City, NJ", "date": "7/12/2015", "article": ["http://www.nj.com/hudson/index.ssf/2015/07/four_people_injured_in_jersey_city_shooting_police.html#incart_river"]}, {"injured": 3, "_point": {"lat": 41.8978091, "lng": -87.81394829999999, "label": "River Forest, IL"}, "shooter": "Unknown", "dead": 2, "location": "River Forest, IL", "date": "7/12/2015", "article": ["http://chicago.cbslocal.com/2015/07/12/cop-wounded-in-river-forest-shootout-neighbor-says/"]}, {"injured": 1, "_point": {"lat": 30.4582829, "lng": -91.1403196, "label": "Baton Rouge, LA"}, "shooter": "Marquiles Whaley", "dead": 3, "location": "Baton Rouge, LA", "date": "7/12/2015", "article": ["http://theadvocate.com/news/12895241-171/three-dead-one-wounded-in"]}, {"injured": 4, "_point": {"lat": 37.9577016, "lng": -121.2907796, "label": "Stockton, CA"}, "shooter": "Unknown", "dead": 1, "location": "Stockton, CA", "date": "7/13/2015", "article": ["http://sacramento.cbslocal.com/2015/07/13/1-dead-4-injured-in-stockton-shooting-2/"]}, {"injured": 4, "_point": {"lat": 38.6270025, "lng": -90.19940419999999, "label": "St. Louis, MO"}, "shooter": "Unknown", "dead": 0, "location": "St. Louis, MO", "date": "7/14/2015", "article": ["http://www.stltoday.com/news/local/crime-and-courts/four-shot-one-critically-injured-in-shooting-near-halls-ferry/article_efb36b2b-1654-5f7f-b86f-d88cf9cfdbcf.html"]}, {"injured": 3, "_point": {"lat": 39.2903848, "lng": -76.6121893, "label": "Baltimore, MD"}, "shooter": "Unknown", "dead": 1, "location": "Baltimore, MD", "date": "7/15/2015", "article": ["http://www.baltimoresun.com/news/maryland/crime/blog/bs-md-ci-shootings-20150715-story.html"]}, {"injured": 1, "_point": {"lat": 33.3226624, "lng": -80.41370370000001, "label": "Holly Hill, SC"}, "shooter": "Unknown", "dead": 4, "location": "Holly Hill, SC", "date": "7/15/2015", "article": ["http://abcnews.go.com/US/wireStory/sheriffs-office-people-killed-home-south-carolina-32464912"]}, {"injured": 7, "_point": {"lat": 41.49932, "lng": -81.6943605, "label": "Cleaveland, OH"}, "shooter": "Unknown", "dead": 0, "location": "Cleaveland, OH", "date": "7/15/2015", "article": ["http://fox8.com/2015/07/16/at-least-7-injured-in-overnight-drive-by-shooting-on-clevelands-east-side/"]}, {"injured": 4, "_point": {"lat": 42.331427, "lng": -83.0457538, "label": "Detroit, MI"}, "shooter": "Unknown", "dead": 0, "location": "Detroit, MI", "date": "7/15/2015", "article": ["http://www.clickondetroit.com/news/4-people-shot-in-driveby-shooting-on-detroits-west-side/34189762"]}, {"injured": 5, "_point": {"lat": 33.7489954, "lng": -84.3879824, "label": "Atlanta, GA"}, "shooter": "Unknown", "dead": 0, "location": "Atlanta, GA", "date": "7/15/2015", "article": ["http://www.wsbtv.com/news/news/local/double-shooting-investigated-nw-atlanta/nmzQt/"]}, {"injured": 3, "_point": {"lat": 35.0456297, "lng": -85.3096801, "label": "Chattanooga, TN"}, "shooter": "Muhammad Youssef Abdulazeez", "dead": 5, "location": "Chattanooga, TN", "date": "7/16/2015", "article": ["http://www.cbsnews.com/news/report-police-officer-shot-near-tennessee-army-recruiting-center/"]}, {"injured": 4, "_point": {"lat": 32.7766642, "lng": -96.79698789999999, "label": "Dallas, TX"}, "shooter": "Unknown", "dead": 0, "location": "Dallas, TX", "date": "7/16/2015", "article": ["http://www.wfaa.com/story/news/crime/2015/07/17/three-shot-in-grocery-store-ambush/30285841/"]}, {"injured": 5, "_point": {"lat": 39.9611755, "lng": -82.99879419999999, "label": "Columbus, OH"}, "shooter": "Clement Dwight Cooper and Michael Antonio Long", "dead": 1, "location": "Columbus, OH", "date": "7/17/2015", "article": ["http://nbc4i.com/2015/07/17/1-dead-4-injured-in-west-columbus-shooting/"]}, {"injured": 4, "_point": {"lat": 39.1031182, "lng": -84.5120196, "label": "Cincinnati, OH"}, "shooter": "Unknown", "dead": 0, "location": "Cincinnati, OH", "date": "7/17/2015", "article": ["http://www.cincinnati.com/story/news/2015/07/17/sunshine-avenue-shooting/30327115/"]}, {"injured": 4, "_point": {"lat": 46.819941, "lng": -68.4766064, "label": "Aroostook County, ME"}, "shooter": "Anthony Lord", "dead": 2, "location": "Aroostook County, ME", "date": "7/17/2015", "article": ["http://www.pressherald.com/2015/07/17/town-of-lee-shut-down-for-manhunt/", "http://bangordailynews.com/2015/07/20/news/aroostook/lord-confessed-to-shooting-spree-that-left-2-dead-says-affidavit/"]}, {"injured": 3, "_point": {"lat": 38.9071923, "lng": -77.0368707, "label": "Washington, DC"}, "shooter": "Unknown", "dead": 1, "location": "Washington, DC", "date": "7/17/2015", "article": ["http://www.nbcwashington.com/news/local/Three-People-Shot-in-Northeast-DC--316481771.html"]}, {"injured": 5, "_point": {"lat": 41.8781136, "lng": -87.6297982, "label": "Chicago, IL"}, "shooter": "Unknown", "dead": 0, "location": "Chicago, IL", "date": "7/17/2015", "article": ["http://www.nbcchicago.com/news/local/chicago-violence-five-shot-west-garfield-park-friday-316363111.html"]}, {"injured": 2, "_point": {"lat": 30.4582829, "lng": -91.1403196, "label": "Baton Rouge, LA"}, "shooter": "Unknown", "dead": 2, "location": "Baton Rouge, LA", "date": "7/18/2015", "article": ["http://www.wafb.com/story/29580203/two-dead-two-hospitalized-in-brice-street-shooting"]}, {"injured": 3, "_point": {"lat": 44.9428975, "lng": -123.0350963, "label": "Salem, OR"}, "shooter": "Unknown", "dead": 1, "location": "Salem, OR", "date": "7/18/2015", "article": ["http://www.kval.com/news/local/1-dead-3-injured-in-Salem-strip-club-shooting-316933861.html"]}, {"injured": 6, "_point": {"lat": 38.2526647, "lng": -85.7584557, "label": "Louisville, KY"}, "shooter": "Unknown", "dead": 0, "location": "Louisville, KY", "date": "7/19/2015", "article": ["http://www.14news.com/story/29581038/7-people-shot-inside-louisville-nightclub-suspect-at-large"]}, {"injured": 4, "_point": {"lat": 36.7282054, "lng": -76.5835621, "label": "Suffolk, VA"}, "shooter": "Unknown", "dead": 0, "location": "Suffolk, VA", "date": "7/19/2015", "article": ["http://wtkr.com/2015/07/19/four-people-shot-in-suffolk/"]}, {"injured": 5, "_point": {"lat": 40.8370495, "lng": -73.86542949999999, "label": "Bronx, NY"}, "shooter": "Unknown", "dead": 0, "location": "Bronx, NY", "date": "7/20/2015", "article": ["http://www.nydailynews.com/new-york/nyc-crime/5-youths-wounded-gunfire-erupts-barbecue-bronx-park-article-1.2297516"]}, {"injured": 3, "_point": {"lat": 25.9420377, "lng": -80.2456045, "label": "Miami Gardens, FL"}, "shooter": "Unknown", "dead": 1, "location": "Miami Gardens, FL", "date": "7/21/2015", "article": ["http://www.wsvn.com/story/29597409/shooting-outside-miami-gardens-night-club-leaves-1-dead"]}, {"injured": 1, "_point": {"lat": 34.2358502, "lng": -84.14351359999999, "label": "Forsyth County, GA"}, "shooter": "Unknown", "dead": 4, "location": "Forsyth County, GA", "date": "7/22/2015", "article": ["http://www.ajc.com/news/news/crime-law/three-people-dead-two-wounded-in-forsyth-county-sh/nm4jg/"]}, {"injured": 9, "_point": {"lat": 30.2240897, "lng": -92.0198427, "label": "Lafayette, LA"}, "shooter": "John Russell Houser", "dead": 3, "location": "Lafayette, LA", "date": "7/23/2015", "article": ["http://www.latimes.com/nation/la-na-louisiana-movie-theater-shooting-20150724-story.html"]}, {"injured": 4, "_point": {"lat": 42.12922409999999, "lng": -80.085059, "label": "Erie, PA"}, "shooter": "Unknown", "dead": 2, "location": "Erie, PA", "date": "7/25/2015", "article": ["http://www.erietvnews.com/story/29640437/4th-gun-recovered-in-investigation-into-deadly-shootout", "http://www.erietvnews.com/story/29630640/erie-teen-killed-5-more-injured-in-overnight-shooting"]}, {"injured": 4, "_point": {"lat": 37.3043154, "lng": -77.28720009999999, "label": "Hopewell, VA"}, "shooter": "William Timothy Faust", "dead": 0, "location": "Hopewell, VA", "date": "7/25/2015", "article": ["http://www.nbc12.com/story/29682598/police-make-arrest-in-shotgun-shooting-that-injured-4-in-hopewell"]}, {"injured": 5, "_point": {"lat": 39.768403, "lng": -86.158068, "label": "Indianapolis, IN"}, "shooter": "Unknown", "dead": 0, "location": "Indianapolis, IN", "date": "7/26/2015", "article": ["http://www.wthr.com/story/29633647/multiple-people-wounded-in-near-downtown-shooting-incident-with-police-officers"]}, {"injured": 3, "_point": {"lat": 39.0997265, "lng": -94.5785667, "label": "Kansas City, MO"}, "shooter": "Unknown", "dead": 2, "location": "Kansas City, MO", "date": "7/26/2015", "article": ["http://www.reuters.com/article/2015/07/26/us-usa-crime-missouri-idUSKCN0Q00QF20150726"]}, {"injured": 4, "_point": {"lat": 29.95106579999999, "lng": -90.0715323, "label": "New Orleans, LA"}, "shooter": "Unknown", "dead": 0, "location": "New Orleans, LA", "date": "7/26/2015", "article": ["http://www.nola.com/crime/index.ssf/2015/07/4_shot_in_assault_rifle_attack.html"]}, {"injured": 5, "_point": {"lat": 42.2711311, "lng": -89.0939952, "label": "Rockford, IL"}, "shooter": "Unknown", "dead": 0, "location": "Rockford, IL", "date": "7/27/2015", "article": ["http://www.wifr.com/home/headlines/Five-People-Shot-at-House-Party-318631191.html"]}, {"injured": 2, "_point": {"lat": 37.8985966, "lng": -88.9233622, "label": "West Frankfort, IL"}, "shooter": "Harley Wilder", "dead": 2, "location": "West Frankfort, IL", "date": "7/28/2015", "article": ["http://www.wpsdlocal6.com/story/29660069/two-killed-two-injured-in-west-frankfort-shooting"]}, {"injured": 4, "_point": {"lat": 40.44062479999999, "lng": -79.9958864, "label": "Pittsburgh, PA"}, "shooter": "Unknown", "dead": 0, "location": "Pittsburgh, PA", "date": "7/30/2015", "article": ["http://www.wtae.com/news/12yearold-shot-in-homewood-north/34453952"]}, {"injured": 4, "_point": {"lat": 28.5383355, "lng": -81.3792365, "label": "Orlando, FL"}, "shooter": "Unknown", "dead": 0, "location": "Orlando, FL", "date": "8/1/2015", "article": ["http://www.orlandosentinel.com/news/breaking-news/os-victor-hernandez-shot-eye-orlando-20150803-story.html"]}, {"injured": 4, "_point": {"lat": 41.8781136, "lng": -87.6297982, "label": "Chicago, IL"}, "shooter": "Unknown", "dead": 1, "location": "Chicago, IL", "date": "8/2/2015", "article": ["http://abc7chicago.com/news/1-dead-4-injured-in-north-austin-shooting/898451/"]}, {"injured": 9, "_point": {"lat": 40.6781784, "lng": -73.9441579, "label": "Brooklyn, NY"}, "shooter": "Unknown", "dead": 0, "location": "Brooklyn, NY", "date": "8/2/2015", "article": ["http://www.nytimes.com/2015/08/03/nyregion/9-injured-in-shooting-in-east-brooklyn.html?_r=0"]}, {"injured": 5, "_point": {"lat": 32.0835407, "lng": -81.09983419999999, "label": "Savannah, GA"}, "shooter": "Unknown", "dead": 0, "location": "Savannah, GA", "date": "8/2/2015", "article": ["http://m.wtoc.com/wtoc/db_350145/contentdetail.htm?full=true&contentguid=lTj70D7u&pn=&ps=#display"]}, {"injured": 7, "_point": {"lat": 39.2903848, "lng": -76.6121893, "label": "Baltimore, MD"}, "shooter": "Unknown", "dead": 0, "location": "Baltimore, MD", "date": "8/2/2015", "article": ["http://www.baltimoresun.com/news/maryland/crime/blog/bal-7-shot-in-single-incident-in-w-baltimore-neighborhood-20150802-story.html"]}, {"injured": 5, "_point": {"lat": 40.6781784, "lng": -73.9441579, "label": "Brooklyn, NY"}, "shooter": "Unknown", "dead": 0, "location": "Brooklyn, NY", "date": "8/3/2015", "article": ["http://nypost.com/2015/08/04/five-wounded-in-brooklyn-drive-by-shooting/"]}, {"injured": 4, "_point": {"lat": 38.6270025, "lng": -90.19940419999999, "label": "St. Louis, MO"}, "shooter": "Unknown", "dead": 1, "location": "St. Louis, MO", "date": "8/4/2015", "article": ["http://www.stltoday.com/news/local/crime-and-courts/two-men-killed-wounded-in-overnight-shootings-in-st-louis/article_5d1e6dce-ee47-5da2-8a78-65e0283841fc.html"]}, {"injured": 4, "_point": {"lat": 34.0007104, "lng": -81.0348144, "label": "Columbia, SC"}, "shooter": "Unknown", "dead": 0, "location": "Columbia, SC", "date": "8/6/2015", "article": ["http://www.wltx.com/story/news/2015/08/07/four-people-shot-columbia-suspect-wanted/31300491/"]}, {"injured": 0, "_point": {"lat": 44.1970055, "lng": -72.50204939999999, "label": "Barre, VT"}, "shooter": "Jody Herring", "dead": 4, "location": "Barre, VT", "date": "8/7/2015", "article": ["http://www.wcax.com/story/29740309/3-women-found-dead-in-berlin-related-to-barre-shooting-suspect"]}, {"injured": 3, "_point": {"lat": 35.262082, "lng": -81.18730049999999, "label": "Gastonia, NC"}, "shooter": "Unknown", "dead": 2, "location": "Gastonia, NC", "date": "8/8/2015", "article": ["http://www.nbcnews.com/news/us-news/gaston-county-shooting-five-shot-including-two-police-officers-n406611"]}, {"injured": 11, "_point": {"lat": 35.9272953, "lng": -89.9189753, "label": "Blytheville, AR"}, "shooter": "Unknown", "dead": 1, "location": "Blytheville, AR", "date": "8/8/2015", "article": ["http://www.therepublic.com/view/story/7f29eae4bf1f48c79d31b1e53dbc19a0/AR--Blytheville-Slaying"]}, {"injured": 0, "_point": {"lat": 29.7604267, "lng": -95.3698028, "label": "Houston, TX"}, "shooter": "David Conley", "dead": 8, "location": "Houston, TX", "date": "8/8/2015", "article": ["http://www.usatoday.com/story/news/nation/2015/08/10/victims-shooting-mourned/31398681/"]}, {"injured": 3, "_point": {"lat": 32.3645888, "lng": -89.47423479999999, "label": "Forest, MS"}, "shooter": "Unknown", "dead": 1, "location": "Forest, MS", "date": "8/9/2015", "article": ["http://www.wapt.com/news/central-mississippi/woman-killed-in-forest-shooting/34631886"]}, {"injured": 3, "_point": {"lat": 42.331427, "lng": -83.0457538, "label": "Detroit, MI"}, "shooter": "Unknown", "dead": 1, "location": "Detroit, MI", "date": "8/9/2015", "article": ["http://www.detroitnews.com/story/news/local/detroit-city/2015/08/10/dead-wounded-overnight-detroit-shootings/31403023/"]}, {"injured": 4, "_point": {"lat": 33.7700504, "lng": -118.1937395, "label": "Long Beach, CA"}, "shooter": "Unknown", "dead": 0, "location": "Long Beach, CA", "date": "8/10/2015", "article": ["http://www.latimes.com/local/lanow/la-me-ln-4-shot-in-long-beach-gunman-at-large-20150810-story.html"]}, {"injured": 3, "_point": {"lat": 40.44062479999999, "lng": -79.9958864, "label": "Pittsburgh, PA"}, "shooter": "Unknown", "dead": 1, "location": "Pittsburgh, PA", "date": "8/15/2015", "article": ["http://www.wpxi.com/news/news/local/3-shot-1-dead-west-end-shooting/nnK5P/"]}, {"injured": 3, "_point": {"lat": 33.4918203, "lng": -80.8556476, "label": "Orangeburg, SC"}, "shooter": "Unknown", "dead": 1, "location": "Orangeburg, SC", "date": "8/15/2015", "article": ["http://thetandd.com/news/drive-by-shooter-kills-injures/article_5a98e314-e6f4-5ab0-b54f-431853f606ff.html"]}, {"injured": 4, "_point": {"lat": 34.0522342, "lng": -118.2436849, "label": "Los Angeles, CA"}, "shooter": "Unknown", "dead": 0, "location": "Los Angeles, CA", "date": "8/15/2015", "article": ["http://abc7.com/news/4-people-in-car-injured-after-gunman-opens-fire-in-south-los-angeles/935475/"]}, {"injured": 3, "_point": {"lat": 25.7616798, "lng": -80.1917902, "label": "Miami, FL"}, "shooter": "Unknown", "dead": 1, "location": "Miami, FL", "date": "8/16/2015", "article": ["http://www.miamiherald.com/news/local/community/miami-dade/article31249055.html"]}, {"injured": 6, "_point": {"lat": 32.7554883, "lng": -97.3307658, "label": "Fort Worth, TX"}, "shooter": "Unknown", "dead": 0, "location": "Fort Worth, TX", "date": "8/16/2015", "article": ["http://www.star-telegram.com/news/local/community/fort-worth/article31246733.html"]}, {"injured": 5, "_point": {"lat": 34.6173803, "lng": -79.68478139999999, "label": "Bennettsville, SC"}, "shooter": "Unknown", "dead": 0, "location": "Bennettsville, SC", "date": "8/16/2015", "article": ["http://www.wfxg.com/story/29803458/five-people-shot-at-bennettsville-club-early-sunday-morning-officials-state"]}, {"injured": 4, "_point": {"lat": 41.8781136, "lng": -87.6297982, "label": "Chicago, IL"}, "shooter": "Unknown", "dead": 0, "location": "Chicago, IL", "date": "8/16/2015", "article": ["http://www.dnainfo.com/chicago/20150816/austin/3-men-1-female-passerby-injured-austin-party-shooting-police-say"]}, {"injured": 4, "_point": {"lat": 43.16103, "lng": -77.6109219, "label": "Rochester, NY"}, "shooter": "Unknown", "dead": 3, "location": "Rochester, NY", "date": "8/19/2015", "article": ["http://abcnews.go.com/US/wireStory/killed-wounded-shooting-western-york-33194354"]}, {"injured": 2, "_point": {"lat": 26.6215167, "lng": -98.7481167, "label": "Starr County, TX"}, "shooter": "Unknown", "dead": 2, "location": "Starr County, TX", "date": "8/20/2015", "article": ["http://www.themonitor.com/news/local/two-dead-two-injured-in-starr-county-shooting/article_37057292-47b8-11e5-8a52-ab722992a66f.html"]}, {"injured": 8, "_point": {"lat": 35.9940329, "lng": -78.898619, "label": "Durham, NC"}, "shooter": "Unknown", "dead": 0, "location": "Durham, NC", "date": "8/21/2015", "article": ["http://wncn.com/2015/08/22/7-injured-in-durham-drive-by-shooting/"]}, {"injured": 1, "_point": {"lat": 33.3942655, "lng": -104.5230242, "label": "Roswell, NM"}, "shooter": "Unknown", "dead": 3, "location": "Roswell, NM", "date": "8/21/2015", "article": ["http://www.kob.com/article/stories/s3886264.shtml#.VdtF_PlVhHw"]}, {"injured": 5, "_point": {"lat": 39.1031182, "lng": -84.5120196, "label": "Cincinnati, OH"}, "shooter": "Unknown", "dead": 2, "location": "Cincinnati, OH", "date": "8/21/2015", "article": ["http://www.cincinnati.com/story/news/2015/08/22/police-5-injured-2-dead--madisonville-shooting/32189603/"]}, {"injured": 4, "_point": {"lat": 28.5577794, "lng": -81.4534046, "label": "Pine Hills, FL"}, "shooter": "Unknown", "dead": 0, "location": "Pine Hills, FL", "date": "8/21/2015", "article": ["http://www.orlandosentinel.com/news/breaking-news/os-three-shot-gas-station-pine-hills-20150822-story.html#"]}, {"injured": 7, "_point": {"lat": 37.63909719999999, "lng": -120.9968782, "label": "Modesto, CA"}, "shooter": "Unknown", "dead": 1, "location": "Modesto, CA", "date": "8/22/2015", "article": ["http://www.nbcnews.com/news/us-news/after-california-music-festival-shooting-leaves-1-dead-7-injured-n414561"]}, {"injured": 3, "_point": {"lat": 29.95106579999999, "lng": -90.0715323, "label": "New Orleans, LA"}, "shooter": "Unknown", "dead": 1, "location": "New Orleans, LA", "date": "8/25/2015", "article": ["http://www.nola.com/crime/index.ssf/2015/08/new_orleans_homicide.html#incart_story_package"]}, {"injured": 4, "_point": {"lat": 45.076076, "lng": -93.3327283, "label": "Brooklyn Center, MN"}, "shooter": "Unknown", "dead": 0, "location": "Brooklyn Center, MN", "date": "8/26/2015", "article": ["http://minnesota.cbslocal.com/2015/08/26/4-shot-injured-in-brooklyn-center-home-invasion/"]}, {"injured": 1, "_point": {"lat": 37.18125360000001, "lng": -79.6172536, "label": "Moneta, VA"}, "shooter": "Vester Flanagan (aka Bryce Williams)", "dead": 3, "location": "Moneta, VA", "date": "8/26/2015", "article": ["http://www.nytimes.com/2015/08/27/us/wdbj7-virginia-journalists-shot-during-live-broadcast.html?emc=edit_na_20150826&nlid=54192941&ref=headline&_r=0"]}, {"injured": 2, "_point": {"lat": 26.7153424, "lng": -80.0533746, "label": "West Palm Beach, FL"}, "shooter": "Unknown", "dead": 2, "location": "West Palm Beach, FL", "date": "8/26/2015", "article": ["http://www.palmbeachpost.com/news/news/crime-law/police-more-than-one-injured-in-west-palm-beach-sh/nnRYF/"]}, {"injured": 3, "_point": {"lat": 41.8781136, "lng": -87.6297982, "label": "Chicago, IL"}, "shooter": "Unknown", "dead": 1, "location": "Chicago, IL", "date": "8/26/2015", "article": ["http://www.chicagotribune.com/news/local/breaking/ct-3-shot-in-east-garfield-park-20150826-story.html"]}, {"injured": 2, "_point": {"lat": 36.6777372, "lng": -121.6555013, "label": "Salinas, CA"}, "shooter": "Unknown", "dead": 2, "location": "Salinas, CA", "date": "8/27/2015", "article": ["http://www.ksbw.com/news/two-dead-two-wounded-in-salinas-shooting/34949818"]}, {"injured": 3, "_point": {"lat": 40.6781784, "lng": -73.9441579, "label": "Brooklyn, NY"}, "shooter": "Unknown", "dead": 1, "location": "Brooklyn, NY", "date": "8/28/2015", "article": ["http://newyork.cbslocal.com/2015/08/28/deadly-brooklyn-lounge-shooting/"]}, {"injured": 3, "_point": {"lat": 32.3352505, "lng": -95.3102505, "label": "Smith County, TX"}, "shooter": "Unknown", "dead": 1, "location": "Smith County, TX", "date": "8/29/2015", "article": ["http://www.cbs19.tv/story/29913661/victim-identified-in-truck-stop-shooting"]}, {"injured": 2, "_point": {"lat": 36.5951059, "lng": -82.18874439999999, "label": "Bristol, TN"}, "shooter": "Robert Seth Denton", "dead": 3, "location": "Bristol, TN", "date": "8/29/2015", "article": ["http://abcnews.go.com/US/wireStory/dead-injured-shooting-spree-tennessee-33417102"]}, {"injured": 4, "_point": {"lat": 32.8406946, "lng": -83.6324022, "label": "Macon, GA"}, "shooter": "Unknown", "dead": 0, "location": "Macon, GA", "date": "8/29/2015", "article": ["http://www.macon.com/news/local/crime/article32791677.html"]}, {"injured": 4, "_point": {"lat": 35.1495343, "lng": -90.0489801, "label": "Memphis, TN"}, "shooter": "Unknown", "dead": 1, "location": "Memphis, TN", "date": "8/30/2015", "article": ["http://www.wmcactionnews5.com/story/29916653/1-dead-4-injured-in-shooting-on-sobota-circle"]}, {"injured": 4, "_point": {"lat": 43.2011264, "lng": -86.23894639999999, "label": "Muskegon Heights, MI"}, "shooter": "Unknown", "dead": 0, "location": "Muskegon Heights, MI", "date": "8/30/2015", "article": ["http://woodtv.com/2015/08/30/3-shot-in-muskegon-heights/"]}, {"injured": 0, "_point": {"lat": 40.30427780000001, "lng": -73.9923596, "label": "Long Branch, NJ"}, "shooter": "Lyndon Beharry", "dead": 4, "location": "Long Branch, NJ", "date": "9/1/2015", "article": ["http://6abc.com/news/family-shot-in-murder-suicide-before-nj-fire-prosecutors-say/969948/"]}, {"injured": 3, "_point": {"lat": 35.2270869, "lng": -80.8431267, "label": "Charlotte, NC"}, "shooter": "Unknown", "dead": 1, "location": "Charlotte, NC", "date": "9/5/2015", "article": ["http://wtop.com/national/2015/09/police-girl-9-dead-3-hurt-after-north-carolina-shooting/"]}, {"injured": 4, "_point": {"lat": 38.8586209, "lng": -93.8907751, "label": "Columbus, MO"}, "shooter": "Unknown", "dead": 0, "location": "Columbus, MO", "date": "9/5/2015", "article": ["http://www.abc17news.com/news/four-injured-following-shooting-at-columbia-vfw/35121054"]}, {"injured": 4, "_point": {"lat": 29.2108147, "lng": -81.0228331, "label": "Daytona Beach, FL"}, "shooter": "Unknown", "dead": 0, "location": "Daytona Beach, FL", "date": "9/5/2015", "article": ["http://www.wftv.com/news/news/local/police-4-shot-outside-daytona-beach-nightclub/nnYsn/"]}, {"injured": 3, "_point": {"lat": 36.1699412, "lng": -115.1398296, "label": "Las Vegas, NV"}, "shooter": "Unknown", "dead": 1, "location": "Las Vegas, NV", "date": "9/5/2015", "article": ["http://www.fox5vegas.com/story/29967889/1-killed-3-injured-in-shooting-on-eastside"]}, {"injured": 4, "_point": {"lat": 39.7392358, "lng": -104.990251, "label": "Denver, CO"}, "shooter": "Unknown", "dead": 0, "location": "Denver, CO", "date": "9/7/2015", "article": ["http://www.9news.com/story/news/crime/2015/09/07/4-injured-downtown-denver-shooting/71833624/"]}, {"injured": 5, "_point": {"lat": 38.9071923, "lng": -77.0368707, "label": "Washington, DC"}, "shooter": "Unknown", "dead": 0, "location": "Washington, DC", "date": "9/7/2015", "article": ["http://www.nbcwashington.com/news/local/Multiple-People-Shot-in-Southeast-DC-Incident-325529391.html"]}, {"injured": 0, "_point": {"lat": 44.977753, "lng": -93.2650108, "label": "Minneapolis, MN"}, "shooter": "Brian Short", "dead": 5, "location": "Minneapolis, MN", "date": "9/8/2015", "article": ["http://www.chron.com/news/crime/article/Authorities-Minnesota-family-died-in-6500498.php"]}, {"injured": 4, "_point": {"lat": 41.8781136, "lng": -87.6297982, "label": "Chicago, IL"}, "shooter": "Unkown", "dead": 0, "location": "Chicago, IL", "date": "9/8/2015", "article": ["http://chicago.suntimes.com/crime/7/71/941400/four-shot-englewood-backyard"]}, {"injured": 0, "_point": {"lat": 47.8847447, "lng": -120.1567011, "label": "Manson, WA"}, "shooter": "Unknown", "dead": 4, "location": "Manson, WA", "date": "9/8/2015", "article": ["http://www.yakimaherald.com/news/crime_and_courts/dead-in-shooting-in-chelan-county/article_9ff488b6-5707-11e5-a337-a77b679c27c1.html"]}, {"injured": 5, "_point": {"lat": 35.2270869, "lng": -80.8431267, "label": "Charlotte, NC"}, "shooter": "Unknown", "dead": 0, "location": "Charlotte, NC", "date": "9/11/2015", "article": ["http://www.wcnc.com/story/news/local/2015/09/11/breaking-3-people-shot--nc-music-factory/72117028/"]}, {"injured": 3, "_point": {"lat": 44.977753, "lng": -93.2650108, "label": "Minneapolis, MN"}, "shooter": "Unknown", "dead": 1, "location": "Minneapolis, MN", "date": "9/12/2015", "article": ["http://www.startribune.com/one-killed-three-injured-in-early-morning-shooting/327025161/"]}, {"injured": 6, "_point": {"lat": 44.977753, "lng": -93.2650108, "label": "Minneapolis, MN"}, "shooter": "Undisclosed", "dead": 0, "location": "Minneapolis, MN", "date": "9/12/2015", "article": ["http://www.startribune.com/six-people-shot-overnight-near-target-center-in-downtown-minneapolis/327032521/"]}, {"injured": 4, "_point": {"lat": 43.16103, "lng": -77.6109219, "label": "Rochester, NY"}, "shooter": "Unknown", "dead": 2, "location": "Rochester, NY", "date": "9/12/2015", "article": ["http://www.twcnews.com/nys/rochester/news/2015/09/12/woodward-street-shooting-.html"]}, {"injured": 4, "_point": {"lat": 32.5251516, "lng": -93.7501789, "label": "Shreveport, LA"}, "shooter": "Unknown", "dead": 0, "location": "Shreveport, LA", "date": "9/12/2015", "article": ["http://www.arklatexhomepage.com/news/four-injured-in-caddo-heights-shooting"]}, {"injured": 5, "_point": {"lat": 29.1871986, "lng": -82.14009229999999, "label": "Ocala, FL"}, "shooter": "Unknown", "dead": 1, "location": "Ocala, FL", "date": "9/13/2015", "article": ["http://www.mynews13.com/content/news/cfnews13/news/article.html/content/news/articles/cfn/2015/9/13/_1_dead_5_injured_in.html"]}, {"injured": 2, "_point": {"lat": 34.736851, "lng": -106.7554819, "label": "Los Chavez, NM"}, "shooter": "Unknown", "dead": 2, "location": "Los Chavez, NM", "date": "9/13/2015", "article": ["http://krqe.com/2015/09/13/state-police-investigating-double-homicide-in-los-chaves/"]}, {"injured": 0, "_point": {"lat": 30.5882429, "lng": -91.16816299999999, "label": "Baker, LA"}, "shooter": "Rodney Chemin", "dead": 4, "location": "Baker, LA", "date": "9/13/2015", "article": ["http://theadvocate.com/news/13436293-100/four-found-dead-in-apparent"]}, {"injured": 4, "_point": {"lat": 40.735657, "lng": -74.1723667, "label": "Newark, NJ"}, "shooter": "Unknown", "dead": 0, "location": "Newark, NJ", "date": "9/15/2015", "article": ["http://www.nj.com/essex/index.ssf/2015/09/4_wounded_in_multiple_newark_shooting.html"]}, {"injured": 4, "_point": {"lat": 42.243097, "lng": -84.7530304, "label": "Albion, MI"}, "shooter": "Undisclosed", "dead": 0, "location": "Albion, MI", "date": "9/17/2015", "article": ["http://woodtv.com/2015/09/17/dispatchers-multiple-victims-in-albion-shooting/"]}, {"injured": 0, "_point": {"lat": 43.3869397, "lng": -98.8445303, "label": "Platte, SD"}, "shooter": "Scott Westerhuis", "dead": 6, "location": "Platte, SD", "date": "9/17/2015", "article": ["http://www.nbcnews.com/news/us-news/father-killed-wife-kids-suicide-prelim-autopsy-reveals-n431401?cid=sm_tw&hootPostID=1cbcc7d6cf3ec13f4bb8ee5651e7de1f"]}, {"injured": 3, "_point": {"lat": 39.768403, "lng": -86.158068, "label": "Indianapolis, IN"}, "shooter": "Unknown", "dead": 1, "location": "Indianapolis, IN", "date": "9/19/2015", "article": ["http://www.indystar.com/story/news/crime/2015/09/19/4-people-shot-northside/72498548/", "http://wishtv.com/2015/09/19/4-shot-including-juvenile-on-near-north-side/"]}, {"injured": 5, "_point": {"lat": 41.8781136, "lng": -87.6297982, "label": "Chicago, IL"}, "shooter": "Unknown", "dead": 1, "location": "Chicago, IL", "date": "9/20/2015", "article": ["http://wgntv.com/2015/09/20/one-dead-11-injured-in-englewood-shooting-crash/", "http://chicago.suntimes.com/crime/7/71/974500/police-1-killed-11-injured-englewood-shooting-crash"]}, {"injured": 6, "_point": {"lat": 36.1539816, "lng": -95.99277500000001, "label": "Tulsa, OK"}, "shooter": "Unknown", "dead": 0, "location": "Tulsa, OK", "date": "9/20/2015", "article": ["http://www.newson6.com/story/30072412/six-shot-outside-tulsa-nightclub"]}, {"injured": 2, "_point": {"lat": 36.6171819, "lng": -121.8482855, "label": "Sand City, CA"}, "shooter": "Undisclosed", "dead": 2, "location": "Sand City, CA", "date": "9/21/2015", "article": ["http://www.latimes.com/local/lanow/la-me-ln-sand-city-police-shooting-20150921-story.html"]}, {"injured": 3, "_point": {"lat": 39.9525839, "lng": -75.1652215, "label": "Philadelphia, PA"}, "shooter": "Unknown", "dead": 1, "location": "Philadelphia, PA", "date": "9/21/2015", "article": ["http://www.nbcphiladelphia.com/news/local/Tavern-Philadelphia-Shooting-Bikers-Fatal--328438681.html"]}, {"injured": 4, "_point": {"lat": 26.640628, "lng": -81.8723084, "label": "Fort Meyers, FL"}, "shooter": "Unknown", "dead": 0, "location": "Fort Meyers, FL", "date": "9/23/2015", "article": ["http://www.news-press.com/story/news/crime/2015/09/24/fort-myers-shooting-victim-identified/72733012/", "http://www.winknews.com/2015/09/24/seven-people-shot-in-seven-hours-in-fort-myers/"]}, {"injured": 3, "_point": {"lat": 33.9412127, "lng": -84.2135309, "label": "Norcross, GA"}, "shooter": "Unknown", "dead": 1, "location": "Norcross, GA", "date": "9/23/2015", "article": ["http://www.wsbtv.com/ap/ap/georgia/police-1-dead-several-injured-in-norcross-shooting/nnmrT/", "http://www.11alive.com/story/news/local/norcross/2015/09/24/police-one-dead-several-injured-norcross-shooting/72722640/"]}, {"injured": 5, "_point": {"lat": 32.5251516, "lng": -93.7501789, "label": "Shreveport, LA"}, "shooter": "Unknown", "dead": 0, "location": "Shreveport, LA", "date": "9/23/2015", "article": ["http://www.arklatexhomepage.com/news/5-injured-in-shooting", "http://www.ktbs.com/story/30103197/five-injured-in-peach-st-drive-by-shooting"]}, {"injured": 5, "_point": {"lat": 41.8781136, "lng": -87.6297982, "label": "Chicago, IL"}, "shooter": "Unknown", "dead": 0, "location": "Chicago, IL", "date": "9/24/2015", "article": ["http://abc7chicago.com/news/4-people-shot-in-back-of-the-yards-/1000927/", "http://chicago.suntimes.com/crime/7/71/988138/four-shot-back-yards"]}, {"injured": 4, "_point": {"lat": 40.124481, "lng": -87.6300207, "label": "Danville, IL"}, "shooter": "Unknown", "dead": 0, "location": "Danville, IL", "date": "9/25/2015", "article": ["http://www.wandtv.com/story/30123982/danville-police-investigating-may-street-shooting", "http://www.commercial-news.com/news/four-injured-in-friday-night-shooting-in-danville/article_e128931c-649b-11e5-9476-af5ed178c329.html"]}, {"injured": 2, "_point": {"lat": 33.9255713, "lng": -116.8764103, "label": "Banning, CA"}, "shooter": "James Diaz", "dead": 2, "location": "Banning, CA", "date": "9/26/2015", "article": ["http://www.pe.com/articles/shooting-781634-officers-banning.html", "http://www.desertsun.com/story/news/2015/09/26/shootings-two-dead-banning/72903096/"]}, {"injured": 4, "_point": {"lat": 39.0997265, "lng": -94.5785667, "label": "Kansas City, MO"}, "shooter": "Unknown", "dead": 0, "location": "Kansas City, MO", "date": "9/27/2015", "article": ["http://www.kmbc.com/news/police-4-shot-outside-18th-vine-jazz-club/35510854", "http://www.kctv5.com/story/30125432/four-shot-outside-jazz-club-in-18th-vine-district"]}, {"injured": 10, "_point": {"lat": 33.0287373, "lng": -84.7129848, "label": "Greenville, GA"}, "shooter": "Unknown", "dead": 0, "location": "Greenville, GA", "date": "9/27/2015", "article": ["http://abcnews.go.com/US/wireStory/sheriff-11-people-injured-west-georgia-bar-shooting-34101372", "http://www.ajc.com/news/news/crime-law/11-people-shot-inside-georgia-bar/nnpy2/"]}, {"injured": 3, "_point": {"lat": 41.8781136, "lng": -87.6297982, "label": "Chicago, IL"}, "shooter": "Unknown", "dead": 2, "location": "Chicago, IL", "date": "9/28/2015", "article": ["http://chicago.suntimes.com/news/7/71/996375/five-people-including-infant-shot-back-yards", "http://www.chicagotribune.com/news/local/breaking/ct-chicago-family-shooting-20150929-story.html"]}, {"injured": 5, "_point": {"lat": 39.1031182, "lng": -84.5120196, "label": "Cincinnati, OH"}, "shooter": "Unknown", "dead": 0, "location": "Cincinnati, OH", "date": "9/28/2015", "article": ["http://www.cincinnati.com/story/news/2015/09/28/four-men-one-child-shot-evanston/73008124/", "http://www.wcpo.com/news/local-news/hamilton-county/cincinnati/evanston/4-men-child-shot-in-evanston"]}, {"injured": 4, "_point": {"lat": 39.7589478, "lng": -84.1916069, "label": "Dayton, OH"}, "shooter": "Unknown", "dead": 0, "location": "Dayton, OH", "date": "9/28/2015", "article": ["http://www.whio.com/news/news/crime-law/multiple-victims-reported-in-dayton-shooting/nnqSG/", "http://wdtn.com/2015/09/29/investigation-underway-after-4-shot-in-dayton/"]}, {"injured": 2, "_point": {"lat": 41.8781136, "lng": -87.6297982, "label": "Chicago, IL"}, "shooter": "Unknown", "dead": 3, "location": "Chicago, IL", "date": "9/29/2015", "article": ["http://abc7chicago.com/news/3-dead-2-wounded-in-fuller-park-shooting/1007546/", "http://wgntv.com/2015/09/29/3-dead-2-injured-in-fuller-park-shooting/"]}, {"injured": 7, "_point": {"lat": 43.216505, "lng": -123.3417381, "label": "Roseburg, OR"}, "shooter": "Chris Harper-Mercer", "dead": 10, "location": "Roseburg, OR", "date": "10/1/2015", "article": ["http://www.oregonlive.com/pacific-northwest-news/index.ssf/2015/10/horror_in_roseburg_10_minutes.html#incart_maj-story-1", "http://www.nytimes.com/2015/10/02/us/oregon-shooting-umpqua-community-college.html?hp&action=click&pgtype=Homepage&module=a-lede-package-region&region=top-news&WT.nav=top-news&_r=0"]}, {"injured": 4, "_point": {"lat": 39.2903848, "lng": -76.6121893, "label": "Baltimore, MD"}, "shooter": "Undisclosed", "dead": 1, "location": "Baltimore, MD", "date": "10/2/2015", "article": ["http://washington.cbslocal.com/2015/10/02/report-4-injured-1-dead-in-reisterstown-road-shooting/", "http://www.wbaltv.com/news/multiple-people-shot-in-northwest-baltimore/35622480"]}, {"injured": 1, "_point": {"lat": 29.0302514, "lng": -82.6687161, "label": "Inglis, FL"}, "shooter": "Walter A. Tyson", "dead": 3, "location": "Inglis, FL", "date": "10/2/2015", "article": ["http://www.fox13news.com/news/local-news/27686663-story?updates=", "http://www.ibtimes.com/florida-shooting-3-killed-including-gunman-outside-inglis-town-hall-hours-after-2124331"]}, {"injured": 5, "_point": {"lat": 39.2903848, "lng": -76.6121893, "label": "Baltimore, MD"}, "shooter": "Unknown", "dead": 0, "location": "Baltimore, MD", "date": "10/6/2015", "article": ["http://baltimore.cbslocal.com/2015/10/06/at-least-2-shot-in-baltimore/"]}, {"injured": 3, "_point": {"lat": 35.1982836, "lng": -111.651302, "label": "Flagstaff, AZ"}, "shooter": "Steven Jones", "dead": 1, "location": "Flagstaff, AZ", "date": "10/9/2015", "article": ["http://abcnews.go.com/US/deadly-shooting-reported-northern-arizona-universitys-flagstaff-campus/story?id=34363113", "http://www.usatoday.com/story/news/2015/10/09/one-person-dead-and-three-injured-in-shooting-at-northern-arizona-university/73639918/"]}, {"injured": 3, "_point": {"lat": 40.6936488, "lng": -89.5889864, "label": "Peoria, IL"}, "shooter": "Unknown", "dead": 1, "location": "Peoria, IL", "date": "10/10/2015", "article": ["http://www.centralillinoisproud.com/news/local-news/teenager-dies-in-early-morning-shooting"]}, {"injured": 4, "_point": {"lat": 35.2270869, "lng": -80.8431267, "label": "Charlotte, NC"}, "shooter": "Unknown", "dead": 0, "location": "Charlotte, NC", "date": "10/10/2015", "article": ["http://www.wsoctv.com/news/news/local/1-person-seriously-injured-after-shooting-west-cha/nnzBY/"]}, {"injured": 5, "_point": {"lat": 35.1495343, "lng": -90.0489801, "label": "Memphis, TN"}, "shooter": "Unknown", "dead": 0, "location": "Memphis, TN", "date": "10/10/2015", "article": ["http://wreg.com/2015/10/11/five-shot-one-ran-over-outside-hickory-hill-nightclub/"]}, {"injured": 4, "_point": {"lat": 33.7956441, "lng": -84.2278796, "label": "DeKalb County, GA"}, "shooter": "Unknown", "dead": 0, "location": "DeKalb County, GA", "date": "10/12/2015", "article": ["http://www.wsbtv.com/news/news/local/child-critical-following-quadruple-shooting-deK/nn2GZ/", "http://patch.com/georgia/decatur/child-three-adults-injured-dekalb-shooting"]}, {"injured": 4, "_point": {"lat": 41.6819935, "lng": -85.9766671, "label": "Elkhart, IN"}, "shooter": "Unknown", "dead": 0, "location": "Elkhart, IN", "date": "10/17/2015", "article": ["http://www.elkharttruth.com/news/crime-fire-courts/2015/10/17/Four-injured-in-overnight-shooting-at-The-Big-Easy-bar-in-Elkhart.html"]}, {"injured": 4, "_point": {"lat": 26.640628, "lng": -81.8723084, "label": "Fort Meyers, FL"}, "shooter": "Unknown", "dead": 1, "location": "Fort Meyers, FL", "date": "10/17/2015", "article": ["http://www.news4jax.com/news/us-world-news/deadly-shooting-sparks-panic-at-zombicon/35907256", "http://www.latimes.com/nation/nationnow/la-na-nn-zombicon-shooting-20151017-story.html"]}, {"injured": 4, "_point": {"lat": 29.95106579999999, "lng": -90.0715323, "label": "New Orleans, LA"}, "shooter": "Unknown", "dead": 0, "location": "New Orleans, LA", "date": "10/18/2015", "article": ["http://www.ksla.com/story/30291009/nopd-4-women-injured-following-lower-ninth-ward-shooting"]}, {"injured": 7, "_point": {"lat": 41.6155909, "lng": -87.5294871, "label": "Calumet City, IL"}, "shooter": "Unknown", "dead": 0, "location": "Calumet City, IL", "date": "10/19/2015", "article": ["http://www.fox32chicago.com/news/local/36382222-story"]}, {"injured": 3, "_point": {"lat": 36.1626638, "lng": -86.7816016, "label": "Nashville, TN"}, "shooter": "Unknown", "dead": 1, "location": "Nashville, TN", "date": "10/23/2015", "article": ["http://www.usatoday.com/story/news/nation-now/2015/10/23/3-shot-tennessee-campus-one-critical-condition/74444990/"]}, {"injured": 4, "_point": {"lat": 33.2971012, "lng": -81.0348202, "label": "Bamberg, SC"}, "shooter": "Unknown", "dead": 0, "location": "Bamberg, SC", "date": "10/24/2015", "article": ["http://thetandd.com/news/four-injured-in-bamberg-shooting/article_bd56a66a-cefe-5524-a65d-39d2ba4773f4.html"]}, {"injured": 5, "_point": {"lat": 38.9071923, "lng": -77.0368707, "label": "Washington, DC"}, "shooter": "Unknown", "dead": 0, "location": "Washington, DC", "date": "10/25/2015", "article": ["http://wjla.com/news/local/5-injured-in-shooting-in-southeast-dc"]}, {"injured": 4, "_point": {"lat": 33.4483771, "lng": -112.0740373, "label": "Pheonix, AZ"}, "shooter": "Unknown", "dead": 1, "location": "Pheonix, AZ", "date": "10/25/2015", "article": ["http://www.azfamily.com/story/30344012/pd-1-dead-4-injured-in-shooting-outside-phoenix-nightclub?autostart=true"]}, {"injured": 5, "_point": {"lat": 35.4448836, "lng": -78.4269489, "label": "Four Oaks, NC"}, "shooter": "Unknown", "dead": 0, "location": "Four Oaks, NC", "date": "10/25/2015", "article": ["http://www.wral.com/five-injured-in-johnston-county-shooting/15014504/"]}, {"injured": 2, "_point": {"lat": 34.7732102, "lng": -80.39173149999999, "label": "Pageland, SC"}, "shooter": "Rashawn Little", "dead": 2, "location": "Pageland, SC", "date": "10/25/2015", "article": ["http://www.wsoctv.com/news/news/local/two-people-shot-one-killed-chesterfield-county/nn9BT/", "http://www.abccolumbia.com/news/local/Suspect-accused-of-shooting-4-in-Pageland-captured-after-10-hour-manhunt-337118411.html"]}, {"injured": 5, "_point": {"lat": 37.9715592, "lng": -87.5710898, "label": "Evansville, IN"}, "shooter": "Marquell Maurice Jackson, Corey James Cain, Diego Thomas", "dead": 0, "location": "Evansville, IN", "date": "10/26/2015", "article": ["http://www.tristatehomepage.com/news/local-news/several-injured-in-shooting-behind-evansville-bar", "http://www.14news.com/story/30356421/epd-5-hurt-after-shooting-behind-711-tavern"]}, {"injured": 5, "_point": {"lat": 32.7554883, "lng": -97.3307658, "label": "Fort Worth, TX"}, "shooter": "Unknown", "dead": 0, "location": "Fort Worth, TX", "date": "10/27/2015", "article": ["http://www.wfaa.com/story/news/local/tarrant-county/2015/10/27/five-injured-gunfire-fort-worth/74716370/", "http://www.fox4news.com/news/39939044-story"]}, {"injured": 3, "_point": {"lat": 29.5957696, "lng": -90.71953479999999, "label": "Houma, LA"}, "shooter": "Elward Williams, Anthony Sylvester", "dead": 1, "location": "Houma, LA", "date": "10/28/2015", "article": ["http://www.wdsu.com/news/1-killed-in-quadruple-shooting/36107530", "http://www.fox8live.com/story/30386078/arrest-warrants-issued-for-suspects-in-houma-quadruple-shooting"]}, {"injured": 0, "_point": {"lat": 38.8338816, "lng": -104.8213634, "label": "Colorado Springs, CO"}, "shooter": "Undisclosed", "dead": 4, "location": "Colorado Springs, CO", "date": "10/31/2015", "article": ["http://www.denverpost.com/news/ci_29052366/shooting-reported-near-downtown-colorado-springs"]}, {"injured": 0, "_point": {"lat": 34.6517733, "lng": -82.7837514, "label": "Pendleton, SC"}, "shooter": "Unknown", "dead": 4, "location": "Pendleton, SC", "date": "11/1/2015", "article": ["http://www.foxcarolina.com/story/30411911/anderson-county-deputies-investigate-pendleton-shooting"]}, {"injured": 3, "_point": {"lat": 30.3321838, "lng": -81.65565099999999, "label": "Jacksonville, FL"}, "shooter": "Unknown", "dead": 1, "location": "Jacksonville, FL", "date": "11/3/2015", "article": ["http://www.news4jax.com/news/1-dead-in-northwest-jacksonville/36241146"]}, {"injured": 2, "_point": {"lat": 29.7751825, "lng": -95.3102505, "label": "Harris County, TX"}, "shooter": "John Howell", "dead": 2, "location": "Harris County, TX", "date": "11/3/2015", "article": ["http://abc13.com/news/two-dead-two-injured-in-shooting-in-nw-harris-county/1068207/"]}, {"injured": 0, "_point": {"lat": 44.5402221, "lng": -69.72199499999999, "label": "Oakland, ME"}, "shooter": "Herman Derico", "dead": 4, "location": "Oakland, ME", "date": "11/4/2015", "article": ["http://www.wcsh6.com/story/news/2015/11/04/police-from-five-agencies-are-at-the-scene-of-a-reported-shooting-on-belgrade-road-in-oakland/75189082/"]}, {"injured": 4, "_point": {"lat": 30.4382559, "lng": -84.28073289999999, "label": "Tallahassee, FL"}, "shooter": "Unknown", "dead": 0, "location": "Tallahassee, FL", "date": "11/6/2015", "article": ["http://www.wctv.tv/home/headlines/Crime-Scene-in-Tallahassee-342183851.html"]}, {"injured": 3, "_point": {"lat": 39.7392358, "lng": -104.990251, "label": "Denver, CO"}, "shooter": "Darius Ratcliff", "dead": 1, "location": "Denver, CO", "date": "11/6/2015", "article": ["http://www.thedenverchannel.com/news/local-news/one-killed-three-wounded-in-shooting-at-bayaud-ave-and-bannock-st-in-denver"]}, {"injured": 4, "_point": {"lat": 35.3732921, "lng": -119.0187125, "label": "Bakersfield, CA"}, "shooter": "Unknown", "dead": 0, "location": "Bakersfield, CA", "date": "11/6/2015", "article": ["http://www.bakersfieldnow.com/news/local/Shooting-near--342248321.html"]}, {"injured": 3, "_point": {"lat": 41.6005448, "lng": -93.6091064, "label": "Des Moines, IA"}, "shooter": "Unknown", "dead": 1, "location": "Des Moines, IA", "date": "11/8/2015", "article": ["http://whotv.com/2015/11/08/one-person-killed-in-early-morning-shooting-outside-nightclub/"]}, {"injured": 4, "_point": {"lat": 42.5144566, "lng": -83.01465259999999, "label": "Warren, MI"}, "shooter": "Unknown", "dead": 0, "location": "Warren, MI", "date": "11/8/2015", "article": ["http://www.detroitnews.com/story/news/local/macomb-county/2015/11/08/shot-warren-hall-shooting/75416718/"]}, {"injured": 2, "_point": {"lat": 39.768403, "lng": -86.158068, "label": "Indianapolis, IN"}, "shooter": "Unknown", "dead": 2, "location": "Indianapolis, IN", "date": "11/9/2015", "article": ["http://cbs4indy.com/2015/11/09/multiple-people-shot-on-near-east-side-early-monday-morning/"]}, {"injured": 1, "_point": {"lat": 30.3321838, "lng": -81.65565099999999, "label": "Jacksonville, FL"}, "shooter": "Gawain Rushane Wilson", "dead": 4, "location": "Jacksonville, FL", "date": "11/13/2015", "article": ["http://www.wftv.com/news/ap/florida/infant-twins-among-4-killed-in-florida-domestic-sh/npNKJ/"]}, {"injured": 2, "_point": {"lat": 34.0522342, "lng": -118.2436849, "label": "Los Angeles, CA"}, "shooter": "John Revels", "dead": 3, "location": "Los Angeles, CA", "date": "11/14/2015", "article": ["http://www.latimes.com/local/lanow/la-me-ln-man-wanted-in-deadly-killing-spree-kills-himself-as-cops-move-in-20151114-story.html"]}, {"injured": 5, "_point": {"lat": 40.32674069999999, "lng": -78.9219698, "label": "Johnstown, PA"}, "shooter": "Unknown", "dead": 0, "location": "Johnstown, PA", "date": "11/14/2015", "article": ["http://www.wjactv.com/news/features/top-stories/stories/5-injured-overnight-shootings-johnstown-7599.shtml"]}, {"injured": 4, "_point": {"lat": 39.9525839, "lng": -75.1652215, "label": "Philadelphia, PA"}, "shooter": "Unknown", "dead": 0, "location": "Philadelphia, PA", "date": "11/15/2015", "article": ["http://6abc.com/news/4-hospitalized-after-shooting-in-east-mount-airy-/1086030/", "http://philadelphia.cbslocal.com/2015/11/15/philadelphia-police-investigate-shooting-that-leaves-four-hospitalized/"]}, {"injured": 0, "_point": {"lat": 31.776932, "lng": -95.6457951, "label": "Anderson County, TX"}, "shooter": "William Hudson", "dead": 6, "location": "Anderson County, TX", "date": "11/15/2015", "article": ["http://crimeblog.dallasnews.com/2015/11/suspect-in-anderson-county-campsite-slayings-charged-with-six-counts-of-capital-murder.html/"]}, {"injured": 1, "_point": {"lat": 34.5803704, "lng": -87.3364102, "label": "Round Mountain, AL"}, "shooter": "Donnie Lee Abernathy", "dead": 3, "location": "Round Mountain, AL", "date": "11/16/2015", "article": ["http://wiat.com/2015/11/16/3-dead-1-injured-after-cherokee-county-shooting/"]}, {"injured": 5, "_point": {"lat": 41.0997803, "lng": -80.6495194, "label": "Youngstown, OH"}, "shooter": "Daniel Harris", "dead": 1, "location": "Youngstown, OH", "date": "11/16/2015", "article": ["http://wkbn.com/2015/11/16/youngstown-police-investigating-shooting-at-southern-tavern/"]}, {"injured": 0, "_point": {"lat": 36.6103334, "lng": -88.31476099999999, "label": "Murray, KY"}, "shooter": "Pascasio Arellano", "dead": 4, "location": "Murray, KY", "date": "11/17/2015", "article": ["http://bnonews.com/news/index.php/news/id2716"]}, {"injured": 0, "_point": {"lat": 36.7468422, "lng": -119.7725868, "label": "Fresno, CA"}, "shooter": "Unknown", "dead": 5, "location": "Fresno, CA", "date": "11/18/2015", "article": ["http://www.yourcentralvalley.com/news/five-injured-in-south-west-fresno-shooting"]}, {"injured": 3, "_point": {"lat": 40.44062479999999, "lng": -79.9958864, "label": "Pittsburgh, PA"},